[{"id":"41001","name":"EAST HATTERAS - 150 NM East of Cape Hatteras","lat":34.791,"lon":-72.42,"type":"buoy","nearshore":false},{"id":"41002","name":"SOUTH HATTERAS - 225 NM South of Cape Hatteras","lat":31.743,"lon":-74.955,"type":"buoy","nearshore":false},{"id":"41004","name":"EDISTO - 41 NM Southeast of Charleston, SC","lat":32.502,"lon":-79.099,"type":"buoy","nearshore":false},{"id":"41008","name":"GRAYS REEF - 40 NM Southeast of Savannah, GA","lat":31.4,"lon":-80.866,"type":"buoy","nearshore":false},{"id":"41009","name":"CANAVERAL 20 NM East of Cape Canaveral, FL","lat":28.508,"lon":-80.185,"type":"buoy","nearshore":false},{"id":"41010","name":"CANAVERAL EAST - 120NM East of Cape Canaveral","lat":28.86,"lon":-78.478,"type":"buoy","nearshore":false},{"id":"41013","name":"Frying Pan Shoals, NC","lat":33.441,"lon":-77.764,"type":"buoy","nearshore":false},{"id":"41024","name":"Sunset Nearshore, NC (SUN2)","lat":33.837,"lon":-78.477,"type":"buoy","nearshore":false},{"id":"41025","name":"Diamond Shoals, NC","lat":35.026,"lon":-75.38,"type":"buoy","nearshore":false},{"id":"41029","name":"Capers Nearshore, SC (CAP2)","lat":32.803,"lon":-79.624,"type":"buoy","nearshore":false},{"id":"41033","name":"Fripp Nearshore, SC (FRP2)","lat":32.279,"lon":-80.406,"type":"buoy","nearshore":false},{"id":"41037","name":"Wrightsville Beach Offshore, NC (ILM3)","lat":33.988,"lon":-77.362,"type":"buoy","nearshore":false},{"id":"41038","name":"Wrightsville Beach Nearshore, NC (ILM2)","lat":34.141,"lon":-77.715,"type":"buoy","nearshore":false},{"id":"41047","name":"NE BAHAMAS - 350 NM ENE of Nassau, Bahamas","lat":27.557,"lon":-71.48,"type":"buoy","nearshore":false},{"id":"41048","name":"WEST BERMUDA - 240 NM West of Bermuda","lat":31.89,"lon":-69.708,"type":"buoy","nearshore":false},{"id":"41052","name":"South of St. John, VI","lat":18.249,"lon":-64.763,"type":"buoy","nearshore":false},{"id":"41053","name":"San Juan, PR","lat":18.474,"lon":-66.099,"type":"buoy","nearshore":false},{"id":"41064","name":"Onslow Bay Outer, NC (LEJ3)","lat":34.207,"lon":-76.949,"type":"buoy","nearshore":false},{"id":"41065","name":"Capers Nearshore Waves (CAP2WAVE)","lat":32.802,"lon":-79.619,"type":"buoy","nearshore":false},{"id":"41066","name":"CHR60","lat":32.536,"lon":-79.656,"type":"buoy","nearshore":false},{"id":"41067","name":"FRP2WAVE","lat":32.276,"lon":-80.406,"type":"buoy","nearshore":false},{"id":"41068","name":"Fort Pierce, FL (FTP)","lat":27.593,"lon":-80.189,"type":"buoy","nearshore":false},{"id":"41069","name":"Ponce de Leon Inlet, FL (PNC)","lat":29.289,"lon":-80.803,"type":"buoy","nearshore":false},{"id":"41070","name":"Ponce de Leon Inlet Waves (PNCWAVE)","lat":29.289,"lon":-80.803,"type":"buoy","nearshore":false},{"id":"41076","name":"CHR60WAVE","lat":32.536,"lon":-79.659,"type":"buoy","nearshore":false},{"id":"41082","name":"OOI Pioneer - Mid-Atlantic Bight Central Surface Mooring","lat":35.95,"lon":-75.125,"type":"buoy","nearshore":false},{"id":"41083","name":"OOI Pioneer - Mid-Atlantic Bight Southern Surface Mooring","lat":35.725,"lon":-74.853,"type":"buoy","nearshore":false},{"id":"41108","name":"Wilmington Harbor, NC - (200)","lat":33.719,"lon":-78.016,"type":"buoy","nearshore":false},{"id":"41110","name":"Masonboro Inlet, ILM2, NC (150)","lat":34.144,"lon":-77.715,"type":"buoy","nearshore":false},{"id":"41112","name":"Offshore Fernandina Beach, FL (132)","lat":30.709,"lon":-81.292,"type":"buoy","nearshore":false},{"id":"41113","name":"Cape Canaveral Nearshore, FL (143)","lat":28.4,"lon":-80.533,"type":"buoy","nearshore":false},{"id":"41115","name":"Rincon, Puerto Rico (181)","lat":18.376,"lon":-67.28,"type":"buoy","nearshore":false},{"id":"41117","name":"St. Augustine, FL (194)","lat":29.999,"lon":-81.079,"type":"buoy","nearshore":false},{"id":"41120","name":"Cape Hatteras East, NC (250)","lat":35.258,"lon":-75.285,"type":"buoy","nearshore":false},{"id":"41121","name":"Arecibo, Puerto Rico (249)","lat":18.491,"lon":-66.701,"type":"buoy","nearshore":false},{"id":"41122","name":"Hollywood Beach, FL (265)","lat":26.001,"lon":-80.096,"type":"buoy","nearshore":false},{"id":"41159","name":"Onslow Bay Outer, NC (217)","lat":34.211,"lon":-76.944,"type":"buoy","nearshore":false},{"id":"42001","name":"MID GULF - 180 nm South of Southwest Pass, LA","lat":25.922,"lon":-89.638,"type":"buoy","nearshore":false},{"id":"42002","name":"WEST GULF - 207 NM East of Brownsville, TX","lat":25.95,"lon":-93.78,"type":"buoy","nearshore":false},{"id":"42012","name":"ORANGE BEACH - 44 NM SE of Mobile, AL","lat":30.06,"lon":-87.548,"type":"buoy","nearshore":false},{"id":"42013","name":"C10 - WFS Central Buoy, 25m Isobath","lat":27.173,"lon":-82.924,"type":"buoy","nearshore":true},{"id":"42022","name":"C12 - WFS Central Buoy, 50m Isobath","lat":27.505,"lon":-83.741,"type":"buoy","nearshore":true},{"id":"42023","name":"C13 - WFS South Buoy, 50m Isobath","lat":26.01,"lon":-83.086,"type":"buoy","nearshore":true},{"id":"42026","name":"C22 - Loop Current Pressure Point Buoy, 70m Isobath","lat":25.171,"lon":-83.475,"type":"buoy","nearshore":true},{"id":"42027","name":"C23 - FLRACEP nWFS Buoy, 45m isobath","lat":29.045,"lon":-85.305,"type":"buoy","nearshore":true},{"id":"42028","name":"C24 - FLRACEP nWFS Buoy, 58m isobath","lat":29.745,"lon":-86.227,"type":"buoy","nearshore":true},{"id":"42035","name":"GALVESTON,TX -  22 NM East of Galveston, TX","lat":29.235,"lon":-94.41,"type":"buoy","nearshore":false},{"id":"42036","name":"WEST TAMPA  - 112 NM WNW of Tampa, FL","lat":28.5,"lon":-84.505,"type":"buoy","nearshore":false},{"id":"42039","name":"PENSACOLA - 115NM SSE of Pensacola, FL","lat":28.768,"lon":-86.024,"type":"buoy","nearshore":false},{"id":"42067","name":"USM-R1","lat":30.05,"lon":-88.583,"type":"buoy","nearshore":true},{"id":"42084","name":"Southwest Pass Entrance W, LA (256)","lat":28.988,"lon":-89.649,"type":"buoy","nearshore":false},{"id":"42085","name":"Southeast of Ponce, PR","lat":17.87,"lon":-66.537,"type":"buoy","nearshore":false},{"id":"42092","name":"Aransas Pass Channel Entrance S, TX (252)","lat":27.639,"lon":-97.012,"type":"buoy","nearshore":false},{"id":"42095","name":"Satan Shoal, FL (244)","lat":24.407,"lon":-81.968,"type":"buoy","nearshore":false},{"id":"42097","name":"Pulley Ridge, FL (226)","lat":25.704,"lon":-83.654,"type":"buoy","nearshore":false},{"id":"42098","name":"Egmont Channel Entrance, FL (214)","lat":27.59,"lon":-82.931,"type":"buoy","nearshore":false},{"id":"42099","name":"Offshore St. Petersburg, FL (144)","lat":27.352,"lon":-84.275,"type":"buoy","nearshore":false},{"id":"42354","name":"Chandeleur Island SE, LA (279)","lat":29.579,"lon":-88.643,"type":"buoy","nearshore":false},{"id":"42357","name":"DISL Sofar Spotter","lat":30.092,"lon":-88.212,"type":"other","nearshore":false},{"id":"42358","name":"FGBNMS Sofar Spotter","lat":27.874,"lon":-93.815,"type":"other","nearshore":false},{"id":"44007","name":"PORTLAND - 12 NM Southeast of Portland,ME","lat":43.525,"lon":-70.14,"type":"buoy","nearshore":false},{"id":"44008","name":"NANTUCKET 54 NM Southeast of Nantucket","lat":40.5,"lon":-69.254,"type":"buoy","nearshore":false},{"id":"44009","name":"DELAWARE BAY 26 NM Southeast of Cape May, NJ","lat":38.46,"lon":-74.692,"type":"buoy","nearshore":false},{"id":"44011","name":"GEORGES BANK 170 NM East of Hyannis, MA","lat":41.088,"lon":-66.546,"type":"buoy","nearshore":false},{"id":"44013","name":"BOSTON 16 NM East of Boston, MA","lat":42.346,"lon":-70.651,"type":"buoy","nearshore":false},{"id":"44014","name":"VIRGINIA BEACH 64 NM East of Virginia Beach, VA","lat":36.603,"lon":-74.837,"type":"buoy","nearshore":false},{"id":"44020","name":"NANTUCKET SOUND","lat":41.497,"lon":-70.283,"type":"buoy","nearshore":false},{"id":"44025","name":"LONG ISLAND - 30 NM South of Islip, NY","lat":40.258,"lon":-73.175,"type":"buoy","nearshore":false},{"id":"44027","name":"Jonesport, ME - 20 NM SE of Jonesport, ME","lat":44.284,"lon":-67.301,"type":"buoy","nearshore":false},{"id":"44029","name":"Buoy A01 - Massachusetts Bay","lat":42.523,"lon":-70.566,"type":"buoy","nearshore":true},{"id":"44030","name":"Buoy B01 - Western Maine Shelf","lat":43.179,"lon":-70.426,"type":"buoy","nearshore":true},{"id":"44032","name":"Buoy E01 - Central Maine Shelf","lat":43.715,"lon":-69.355,"type":"buoy","nearshore":true},{"id":"44033","name":"Buoy F01 - Penobscot Bay","lat":44.055,"lon":-68.996,"type":"buoy","nearshore":true},{"id":"44034","name":"Buoy I01 - Eastern Maine Shelf","lat":44.103,"lon":-68.112,"type":"buoy","nearshore":true},{"id":"44042","name":"Potomac, MD","lat":38.033,"lon":-76.335,"type":"buoy","nearshore":false},{"id":"44056","name":"Duck FRF, NC","lat":36.2,"lon":-75.714,"type":"buoy","nearshore":false},{"id":"44058","name":"Stingray Point, VA","lat":37.567,"lon":-76.257,"type":"buoy","nearshore":false},{"id":"44062","name":"Gooses Reef, MD","lat":38.556,"lon":-76.415,"type":"buoy","nearshore":false},{"id":"44063","name":"Annapolis, MD","lat":38.963,"lon":-76.448,"type":"buoy","nearshore":false},{"id":"44065","name":"New York Harbor Entrance - 15 NM SE of Breezy Point , NY","lat":40.368,"lon":-73.701,"type":"buoy","nearshore":false},{"id":"44069","name":"Great South Bay","lat":40.699,"lon":-73.087,"type":"buoy","nearshore":false},{"id":"44074","name":"Great Bay Buoy","lat":43.071,"lon":-70.868,"type":"buoy","nearshore":false},{"id":"44079","name":"OOI Pioneer - Mid-Atlantic Bight Northern Surface Mooring","lat":36.175,"lon":-74.827,"type":"buoy","nearshore":false},{"id":"44080","name":"Baltimore","lat":39.223,"lon":-76.528,"type":"buoy","nearshore":false},{"id":"44084","name":"Bethany Beach, DE (263)","lat":38.537,"lon":-75.044,"type":"buoy","nearshore":false},{"id":"44085","name":"Buzzards Bay, MA (260)","lat":41.387,"lon":-71.032,"type":"buoy","nearshore":false},{"id":"44086","name":"Nags Head, NC (243)","lat":36.001,"lon":-75.421,"type":"buoy","nearshore":false},{"id":"44088","name":"Virginia Beach Offshore, VA (171)","lat":36.612,"lon":-74.839,"type":"buoy","nearshore":false},{"id":"44090","name":"Cape Cod Bay, MA (221)","lat":41.84,"lon":-70.329,"type":"buoy","nearshore":false},{"id":"44091","name":"Barnegat, NJ (209)","lat":39.772,"lon":-73.769,"type":"buoy","nearshore":false},{"id":"44095","name":"Oregon Inlet, NC (192)","lat":35.75,"lon":-75.33,"type":"buoy","nearshore":false},{"id":"44097","name":"Block Island, RI  (154)","lat":40.967,"lon":-71.124,"type":"buoy","nearshore":false},{"id":"44098","name":"Jeffrey's Ledge, NH (160)","lat":42.8,"lon":-70.169,"type":"buoy","nearshore":false},{"id":"44099","name":"Cape Henry, VA (147)","lat":36.915,"lon":-75.722,"type":"buoy","nearshore":false},{"id":"44100","name":"Duck FRF 26m, NC (430)","lat":36.257,"lon":-75.593,"type":"buoy","nearshore":false},{"id":"45001","name":"MID SUPERIOR- 60 NM North Northeast Hancock, MI","lat":48.061,"lon":-87.793,"type":"buoy","nearshore":false},{"id":"45002","name":"NORTH MICHIGAN- Halfway between North Manitou and Washington Islands.","lat":45.344,"lon":-86.411,"type":"buoy","nearshore":false},{"id":"45004","name":"EAST SUPERIOR -70 NM NE Marquette, MI","lat":47.583,"lon":-86.586,"type":"other","nearshore":false},{"id":"45005","name":"WEST ERIE - 16 NM NW of Lorain, OH","lat":41.677,"lon":-82.398,"type":"other","nearshore":false},{"id":"45006","name":"WEST SUPERIOR - 30NM NE of Outer Island, WI","lat":47.335,"lon":-89.793,"type":"other","nearshore":false},{"id":"45012","name":"EAST Lake Ontario  - 20NM North Northeast of Rochester, NY","lat":43.621,"lon":-77.401,"type":"other","nearshore":false},{"id":"45013","name":"ATW20 - Atwater Park, WI","lat":43.098,"lon":-87.85,"type":"buoy","nearshore":true},{"id":"45023","name":"North Entry Buoy, North Keweenaw Peninsula, MI","lat":47.27,"lon":-88.607,"type":"buoy","nearshore":false},{"id":"45025","name":"South Entry Buoy, South Keweenaw Peninsula, MI","lat":46.969,"lon":-88.398,"type":"buoy","nearshore":false},{"id":"45026","name":"Cook Nuclear Plant Buoy, Stevensville, MI","lat":41.982,"lon":-86.619,"type":"buoy","nearshore":false},{"id":"45027","name":"Fairport Harbor Buoy","lat":46.86,"lon":-91.93,"type":"buoy","nearshore":false},{"id":"45028","name":"Western Lake Superior","lat":46.814,"lon":-91.829,"type":"buoy","nearshore":false},{"id":"45029","name":"Holland Buoy, MI","lat":42.9,"lon":-86.272,"type":"buoy","nearshore":false},{"id":"45132","name":"Port Stanley","lat":42.46,"lon":-81.22,"type":"buoy","nearshore":false},{"id":"45135","name":"Prince Edward Pt","lat":43.78,"lon":-76.87,"type":"buoy","nearshore":false},{"id":"45136","name":"Slate Island","lat":48.54,"lon":-86.95,"type":"buoy","nearshore":false},{"id":"45137","name":"Georgian Bay","lat":45.54,"lon":-81.02,"type":"buoy","nearshore":false},{"id":"45139","name":"West Lake Ontario - Grimsby","lat":43.25,"lon":-79.53,"type":"buoy","nearshore":false},{"id":"45142","name":"Port Colborne","lat":42.74,"lon":-79.29,"type":"buoy","nearshore":false},{"id":"45143","name":"South Georgian Bay","lat":44.94,"lon":-80.627,"type":"buoy","nearshore":false},{"id":"45147","name":"Lake St Clair","lat":42.43,"lon":-82.68,"type":"buoy","nearshore":false},{"id":"45148","name":"Lake of the Woods","lat":49.65,"lon":-94.5,"type":"buoy","nearshore":false},{"id":"45149","name":"Southern Lake Huron","lat":43.54,"lon":-82.08,"type":"buoy","nearshore":false},{"id":"45151","name":"Lake Simcoe","lat":44.5,"lon":-79.37,"type":"buoy","nearshore":false},{"id":"45152","name":"Lake Nipissing","lat":46.23,"lon":-79.72,"type":"buoy","nearshore":false},{"id":"45154","name":"North Channel East","lat":46.05,"lon":-82.64,"type":"buoy","nearshore":false},{"id":"45159","name":"NW Lake Ontario Ajax","lat":43.77,"lon":-78.98,"type":"buoy","nearshore":false},{"id":"45161","name":"Muskegon Buoy, MI","lat":43.185,"lon":-86.354,"type":"buoy","nearshore":false},{"id":"45162","name":"Thunder Bay Buoy, Alpena, MI","lat":44.988,"lon":-83.269,"type":"buoy","nearshore":false},{"id":"45163","name":"Saginaw Bay Buoy, MI","lat":43.983,"lon":-83.6,"type":"buoy","nearshore":false},{"id":"45164","name":"Cleveland Buoy, OH","lat":41.748,"lon":-81.698,"type":"buoy","nearshore":false},{"id":"45165","name":"Toledo Water Intake Buoy, Oregon, OH","lat":41.704,"lon":-83.264,"type":"buoy","nearshore":false},{"id":"45167","name":"Erie Nearshore Buoy, Erie, PA","lat":42.185,"lon":-80.135,"type":"buoy","nearshore":false},{"id":"45168","name":"South Haven Buoy, MI","lat":42.397,"lon":-86.331,"type":"buoy","nearshore":false},{"id":"45170","name":"Michigan City Buoy, IN","lat":41.755,"lon":-86.968,"type":"buoy","nearshore":false},{"id":"45174","name":"Wilmette Buoy, IL","lat":42.135,"lon":-87.655,"type":"buoy","nearshore":false},{"id":"45175","name":"Mackinac Straits West, Mackinaw City, MI","lat":45.825,"lon":-84.772,"type":"buoy","nearshore":false},{"id":"45178","name":"1 NM SE of Valcour Island, NY","lat":44.603,"lon":-73.394,"type":"buoy","nearshore":false},{"id":"45186","name":"Waukegan Buoy, IL","lat":42.368,"lon":-87.795,"type":"buoy","nearshore":false},{"id":"45187","name":"Winthrop Harbor Buoy, IL","lat":42.491,"lon":-87.779,"type":"buoy","nearshore":false},{"id":"45190","name":"Sodus Point, NY","lat":43.282,"lon":-76.961,"type":"buoy","nearshore":false},{"id":"45191","name":"Oak Orchard, NY","lat":43.388,"lon":-78.192,"type":"buoy","nearshore":false},{"id":"45194","name":"McGulpin Point North, MI (253)","lat":45.803,"lon":-84.792,"type":"buoy","nearshore":false},{"id":"45196","name":"Rocky River, OH","lat":41.521,"lon":-81.88,"type":"buoy","nearshore":false},{"id":"45197","name":"Euclid, OH","lat":41.619,"lon":-81.617,"type":"buoy","nearshore":false},{"id":"45198","name":"Chicago Buoy","lat":41.892,"lon":-87.563,"type":"buoy","nearshore":false},{"id":"45199","name":"Salmon Unlimited Wisconsin","lat":42.702,"lon":-87.647,"type":"buoy","nearshore":false},{"id":"45200","name":"Maumee Bay Buoy","lat":41.724,"lon":-83.37,"type":"buoy","nearshore":false},{"id":"45201","name":"Erie Islands Buoy","lat":41.601,"lon":-82.781,"type":"buoy","nearshore":false},{"id":"45202","name":"Port Clinton Buoy","lat":41.532,"lon":-82.941,"type":"buoy","nearshore":false},{"id":"45203","name":"Huron Buoy","lat":41.393,"lon":-82.512,"type":"buoy","nearshore":false},{"id":"45204","name":"Sheffield Buoy","lat":41.508,"lon":-82.115,"type":"buoy","nearshore":false},{"id":"45205","name":"Edgewater Beach Buoy","lat":41.501,"lon":-81.748,"type":"buoy","nearshore":false},{"id":"45206","name":"Euclid Beach Buoy","lat":41.585,"lon":-81.583,"type":"buoy","nearshore":false},{"id":"45207","name":"Fairport Harbor Buoy","lat":41.731,"lon":-81.367,"type":"buoy","nearshore":false},{"id":"45208","name":"Ashtabula Buoy","lat":41.913,"lon":-80.807,"type":"buoy","nearshore":false},{"id":"45209","name":"Lakeport Buoy, MI","lat":43.129,"lon":-82.391,"type":"buoy","nearshore":false},{"id":"45210","name":"Rawley Point East, WI (269)","lat":44.055,"lon":-87.05,"type":"buoy","nearshore":false},{"id":"45211","name":"Grand Island North, MI (268)","lat":46.973,"lon":-86.568,"type":"buoy","nearshore":false},{"id":"45212","name":"North Huron Spotter","lat":45.351,"lon":-82.84,"type":"other","nearshore":false},{"id":"45213","name":"East Superior Spotter","lat":47.588,"lon":-86.588,"type":"other","nearshore":false},{"id":"45214","name":"South Michigan Spotter","lat":42.674,"lon":-87.026,"type":"other","nearshore":false},{"id":"45215","name":"Oswego, NY (274)","lat":43.501,"lon":-76.539,"type":"buoy","nearshore":false},{"id":"45216","name":"Ontonagon, MI","lat":46.907,"lon":-89.354,"type":"buoy","nearshore":false},{"id":"45217","name":"Wisconsin Point","lat":46.708,"lon":-92.0,"type":"buoy","nearshore":false},{"id":"45219","name":"Two Harbors Nearshore Buoy","lat":47.021,"lon":-91.625,"type":"buoy","nearshore":false},{"id":"45220","name":"Dunkirk Buoy","lat":42.561,"lon":-79.432,"type":"fixed","nearshore":true},{"id":"45221","name":"North Lake Champlain","lat":44.756,"lon":-73.355,"type":"buoy","nearshore":false},{"id":"45222","name":"Beach 2 Buoy","lat":42.126,"lon":-80.148,"type":"buoy","nearshore":false},{"id":"45223","name":"Beach 6 Buoy","lat":42.144,"lon":-80.139,"type":"buoy","nearshore":false},{"id":"46001","name":"WESTERN GULF OF ALASKA  - 175NM SE of Kodiak, AK","lat":56.296,"lon":-148.027,"type":"buoy","nearshore":false},{"id":"46004","name":"Middle Nomad","lat":50.93,"lon":-136.1,"type":"buoy","nearshore":false},{"id":"46011","name":"SANTA MARIA - 21NM NW of Point Arguello, CA","lat":34.937,"lon":-120.999,"type":"buoy","nearshore":false},{"id":"46012","name":"HALF MOON BAY - 24NM SSW of San Francisco, CA","lat":37.356,"lon":-122.881,"type":"usv","nearshore":false},{"id":"46013","name":"BODEGA BAY - 48NM NW of San Francisco, CA","lat":38.235,"lon":-123.317,"type":"buoy","nearshore":false},{"id":"46014","name":"PT ARENA - 19NM North of Point Arena, CA","lat":39.225,"lon":-123.98,"type":"buoy","nearshore":false},{"id":"46015","name":"PORT ORFORD - 15 NM West of Port Orford, OR","lat":42.754,"lon":-124.839,"type":"buoy","nearshore":false},{"id":"46022","name":"EEL RIVER - 17NM WSW of Eureka, CA","lat":40.716,"lon":-124.54,"type":"buoy","nearshore":false},{"id":"46025","name":"Santa Monica Basin - 33NM WSW of Santa Monica, CA","lat":33.765,"lon":-119.077,"type":"buoy","nearshore":false},{"id":"46026","name":"SAN FRANCISCO - 18NM West of San Francisco, CA","lat":37.75,"lon":-122.838,"type":"buoy","nearshore":false},{"id":"46027","name":"ST GEORGES - 8 NM NW of Crescent City, CA","lat":41.84,"lon":-124.382,"type":"buoy","nearshore":false},{"id":"46028","name":"CAPE SAN MARTIN - 55NM West NW of Morro Bay, CA","lat":35.763,"lon":-121.9,"type":"buoy","nearshore":false},{"id":"46029","name":"COLUMBIA RIVER BAR - 20NM West of Columbia River Mouth","lat":46.148,"lon":-124.508,"type":"buoy","nearshore":false},{"id":"46035","name":"CENTRAL BERING SEA - 310 NM North of Adak, AK","lat":57.034,"lon":-177.468,"type":"buoy","nearshore":false},{"id":"46041","name":"CAPE ELIZABETH - 45NM NW of Aberdeen, WA","lat":47.352,"lon":-124.739,"type":"buoy","nearshore":false},{"id":"46042","name":"MONTEREY - 27NM WNW of Monterey, CA","lat":36.787,"lon":-122.408,"type":"buoy","nearshore":false},{"id":"46047","name":"TANNER BANK - 121 NM West of San Diego, CA","lat":32.418,"lon":-119.535,"type":"buoy","nearshore":false},{"id":"46050","name":"STONEWALL BANK - 20NM West of Newport, OR","lat":44.679,"lon":-124.535,"type":"buoy","nearshore":false},{"id":"46053","name":"EAST SANTA BARBARA  - 12NM Southwest of Santa Barbara, CA","lat":34.246,"lon":-119.842,"type":"buoy","nearshore":false},{"id":"46054","name":"WEST SANTA BARBARA  38 NM West of Santa Barbara, CA","lat":34.274,"lon":-120.468,"type":"buoy","nearshore":false},{"id":"46060","name":"WEST ORCA BAY - 8NM NW of Hinchinbrook Is., AK","lat":60.571,"lon":-146.795,"type":"buoy","nearshore":false},{"id":"46061","name":"Seal Rocks - Between Montague and Hinchinbrook Islands, AK","lat":60.23,"lon":-146.837,"type":"buoy","nearshore":false},{"id":"46066","name":"SOUTH KODIAK - 310NM SSW of Kodiak, AK","lat":52.776,"lon":-154.992,"type":"buoy","nearshore":false},{"id":"46069","name":"SOUTH SANTA ROSA - 14 NM SW of Santa Rosa Island, CA","lat":33.657,"lon":-120.227,"type":"buoy","nearshore":false},{"id":"46072","name":"CENTRAL ALEUTIANS 230 NM SW Dutch Harbor","lat":51.645,"lon":-172.145,"type":"buoy","nearshore":false},{"id":"46073","name":"SOUTHEAST BERING SEA - 205 NM WNW of Dutch Harbor, AK","lat":54.985,"lon":-171.874,"type":"buoy","nearshore":false},{"id":"46075","name":"SHUMAGIN ISLANDS - 85NM South of Sand Point, AK","lat":53.938,"lon":-160.735,"type":"buoy","nearshore":false},{"id":"46076","name":"CAPE CLEARE - 17 NM South of Montague Is,  AK","lat":59.508,"lon":-148.005,"type":"buoy","nearshore":false},{"id":"46077","name":"SHELIKOF STRAIT, AK","lat":57.869,"lon":-154.211,"type":"buoy","nearshore":false},{"id":"46078","name":"ALBATROSS BANK - 104NM South of Kodiak Is., AK","lat":55.561,"lon":-152.599,"type":"buoy","nearshore":false},{"id":"46080","name":"PORTLOCK BANK - 76 NM ENE of Kodiak, AK","lat":57.91,"lon":-150.129,"type":"buoy","nearshore":false},{"id":"46081","name":"Western Prince William Sound","lat":60.802,"lon":-148.283,"type":"buoy","nearshore":false},{"id":"46082","name":"Cape Suckling - 35 NM SE of Kayak Is, AK","lat":59.67,"lon":-143.353,"type":"buoy","nearshore":false},{"id":"46083","name":"FAIRWEATHER GROUND - 105 NM West  of Juneau, AK","lat":58.276,"lon":-138.024,"type":"buoy","nearshore":false},{"id":"46084","name":"CAPE EDGECUMBE - 25NM SSW of Cape Edgecumbe, AK","lat":56.614,"lon":-136.04,"type":"buoy","nearshore":false},{"id":"46085","name":"CENTRAL GULF OF ALASKA -  265NM West of Cape Ommaney, AK","lat":55.84,"lon":-142.895,"type":"buoy","nearshore":false},{"id":"46086","name":"SAN CLEMENTE BASIN - 27NM SE Of San Clemente Is, CA","lat":32.504,"lon":-118.029,"type":"buoy","nearshore":false},{"id":"46087","name":"Neah Bay - 6 NM North of Cape Flattery, WA (Traffic Separation Lighted Buoy)","lat":48.493,"lon":-124.727,"type":"buoy","nearshore":false},{"id":"46088","name":"NEW DUNGENESS - 17 NM NE of Port Angeles, WA","lat":48.332,"lon":-123.179,"type":"buoy","nearshore":false},{"id":"46092","name":"MBM1","lat":36.751,"lon":-122.029,"type":"buoy","nearshore":false},{"id":"46108","name":"Lower Cook Inlet (204)","lat":59.598,"lon":-151.828,"type":"buoy","nearshore":false},{"id":"46118","name":"Se'lhaem Bellingham Bay","lat":48.724,"lon":-122.576,"type":"buoy","nearshore":false},{"id":"46119","name":"Cha'Ba La Push","lat":47.967,"lon":-124.95,"type":"buoy","nearshore":false},{"id":"46120","name":"Pt Wells, WA (U of Wash)","lat":47.761,"lon":-122.397,"type":"buoy","nearshore":false},{"id":"46123","name":"Twanoh - Hood Canal, WA (U of Wash)","lat":47.375,"lon":-123.008,"type":"buoy","nearshore":false},{"id":"46125","name":"Hansville - Hood Canal, WA","lat":47.907,"lon":-122.627,"type":"buoy","nearshore":false},{"id":"46131","name":"Sentry Shoal","lat":49.91,"lon":-124.98,"type":"buoy","nearshore":false},{"id":"46145","name":"Central Dixon Entrance Buoy","lat":54.37,"lon":-132.42,"type":"buoy","nearshore":false},{"id":"46146","name":"Halibut Bank","lat":49.34,"lon":-123.73,"type":"buoy","nearshore":false},{"id":"46184","name":"North Nomad","lat":53.92,"lon":-138.85,"type":"buoy","nearshore":false},{"id":"46185","name":"South Hecate Strait","lat":52.42,"lon":-129.79,"type":"buoy","nearshore":false},{"id":"46207","name":"East Dellwood","lat":50.87,"lon":-129.92,"type":"buoy","nearshore":false},{"id":"46208","name":"West Moresby","lat":52.52,"lon":-132.69,"type":"buoy","nearshore":false},{"id":"46211","name":"Grays Harbor, WA (036)","lat":46.857,"lon":-124.243,"type":"buoy","nearshore":false},{"id":"46213","name":"Cape Mendocino, CA (094)","lat":40.291,"lon":-124.748,"type":"buoy","nearshore":false},{"id":"46214","name":"Point Reyes, CA (029)","lat":37.944,"lon":-123.466,"type":"buoy","nearshore":false},{"id":"46215","name":"Diablo Canyon, CA (076)","lat":35.204,"lon":-120.859,"type":"buoy","nearshore":false},{"id":"46218","name":"Harvest, CA (071)","lat":34.452,"lon":-120.78,"type":"buoy","nearshore":false},{"id":"46219","name":"San Nicolas Island, CA (067)","lat":33.226,"lon":-119.891,"type":"buoy","nearshore":false},{"id":"46221","name":"Santa Monica Bay, CA (028)","lat":33.86,"lon":-118.641,"type":"buoy","nearshore":false},{"id":"46222","name":"San Pedro, CA (092)","lat":33.614,"lon":-118.314,"type":"buoy","nearshore":false},{"id":"46224","name":"Oceanside Offshore, CA (045)","lat":33.178,"lon":-117.472,"type":"buoy","nearshore":false},{"id":"46225","name":"Torrey Pines Outer, CA (100)","lat":32.933,"lon":-117.391,"type":"buoy","nearshore":false},{"id":"46232","name":"Point Loma South, CA  (191)","lat":32.517,"lon":-117.425,"type":"buoy","nearshore":false},{"id":"46236","name":"Monterey Canyon Outer, CA  (156)","lat":36.759,"lon":-121.95,"type":"buoy","nearshore":false},{"id":"46237","name":"San Francisco Bar, CA  (142)","lat":37.788,"lon":-122.634,"type":"buoy","nearshore":false},{"id":"46239","name":"Point Sur, CA (157)","lat":36.342,"lon":-122.11,"type":"buoy","nearshore":false},{"id":"46243","name":"Clatsop Spit, OR (162)","lat":46.215,"lon":-124.129,"type":"buoy","nearshore":false},{"id":"46244","name":"Humboldt Bay, North Spit, CA (168)","lat":40.896,"lon":-124.358,"type":"buoy","nearshore":false},{"id":"46248","name":"Astoria Canyon, OR  (179)","lat":46.133,"lon":-124.64,"type":"buoy","nearshore":false},{"id":"46251","name":"Santa Cruz Basin, CA (203)","lat":33.769,"lon":-119.565,"type":"buoy","nearshore":false},{"id":"46253","name":"San Pedro South, CA (213)","lat":33.576,"lon":-118.182,"type":"buoy","nearshore":false},{"id":"46254","name":"SCRIPPS Nearshore, CA (201)","lat":32.868,"lon":-117.267,"type":"buoy","nearshore":false},{"id":"46256","name":"Long Beach Channel, CA (215)","lat":33.7,"lon":-118.201,"type":"buoy","nearshore":false},{"id":"46258","name":"Mission Bay West, CA (220)","lat":32.749,"lon":-117.502,"type":"buoy","nearshore":false},{"id":"46259","name":"Santa Lucia Escarpment, CA (222)","lat":34.774,"lon":-121.491,"type":"buoy","nearshore":false},{"id":"46266","name":"Del Mar Nearshore, CA (153)","lat":32.957,"lon":-117.279,"type":"buoy","nearshore":false},{"id":"46267","name":"Angeles Point, WA (248)","lat":48.171,"lon":-123.6,"type":"buoy","nearshore":false},{"id":"46268","name":"Topanga Nearshore, CA (103)","lat":34.022,"lon":-118.578,"type":"buoy","nearshore":false},{"id":"46274","name":"Leucadia Nearshore, CA (262)","lat":33.062,"lon":-117.314,"type":"buoy","nearshore":false},{"id":"46275","name":"Red Beach Nearshore, CA (264)","lat":33.291,"lon":-117.501,"type":"buoy","nearshore":false},{"id":"46277","name":"Green Beach Offshore, CA (271)","lat":33.336,"lon":-117.659,"type":"buoy","nearshore":false},{"id":"46278","name":"Tillamook Bay South Jetty, OR (270)","lat":45.559,"lon":-123.991,"type":"buoy","nearshore":false},{"id":"46283","name":"Yaquina Channel SW, OR (280)","lat":44.567,"lon":-124.237,"type":"buoy","nearshore":false},{"id":"46285","name":"Capistrano Beach Nearshore, CA (284)","lat":33.445,"lon":-117.68,"type":"buoy","nearshore":false},{"id":"46303","name":"Southern Georgia Strait","lat":49.02,"lon":-123.43,"type":"buoy","nearshore":false},{"id":"46304","name":"Entrance To English Bay","lat":49.3,"lon":-123.36,"type":"buoy","nearshore":false},{"id":"46453","name":"Backyard Buoys - Quinault North","lat":47.45,"lon":-124.43,"type":"other","nearshore":false},{"id":"51201","name":"Waimea Bay, HI (106)","lat":21.671,"lon":-158.118,"type":"buoy","nearshore":false},{"id":"51202","name":"Mokapu Point, HI (098)","lat":21.414,"lon":-157.681,"type":"buoy","nearshore":false},{"id":"51205","name":"Pauwela, Maui, HI (187)","lat":21.018,"lon":-156.421,"type":"buoy","nearshore":false},{"id":"51206","name":"Hilo, Hawaii, HI (188)","lat":19.779,"lon":-154.97,"type":"buoy","nearshore":false},{"id":"51208","name":"Hanalei, Kauai, HI (202)","lat":22.285,"lon":-159.574,"type":"buoy","nearshore":false},{"id":"51210","name":"Kaneohe Bay, WETS, HI (225)","lat":21.477,"lon":-157.757,"type":"buoy","nearshore":false},{"id":"51211","name":"Pearl Harbor Entrance, HI (233)","lat":21.297,"lon":-157.959,"type":"buoy","nearshore":false},{"id":"51212","name":"Barbers Point, Kalaeloa, HI (238)","lat":21.323,"lon":-158.149,"type":"buoy","nearshore":false},{"id":"51213","name":"Kaumalapau Southwest, Lanai, HI (239)","lat":20.75,"lon":-157.002,"type":"buoy","nearshore":false},{"id":"51wh0","name":"WHOTS - Woods Hole Ocean Time-series","lat":22.0,"lon":-157.0,"type":"buoy","nearshore":false},{"id":"52162","name":"Backyard Buoys - Saipan Sugar Dock","lat":15.15,"lon":145.694,"type":"other","nearshore":false},{"id":"52200","name":"Ipan, Guam (121)","lat":13.354,"lon":144.788,"type":"buoy","nearshore":false},{"id":"52211","name":"Tanapag, Saipan, NMI (197)","lat":15.269,"lon":145.664,"type":"buoy","nearshore":false},{"id":"aamc1","name":"9414750 - Alameda, CA","lat":37.772,"lon":-122.3,"type":"fixed","nearshore":true},{"id":"abya2","name":"Auke Bay Lab Dock, AK","lat":58.381,"lon":-134.646,"type":"fixed","nearshore":true},{"id":"acxs1","name":"Bennett's Point, ACE Basin Reserve, SC","lat":32.559,"lon":-80.454,"type":"fixed","nearshore":true},{"id":"acyn4","name":"8534720 - Atlantic City, NJ","lat":39.357,"lon":-74.418,"type":"fixed","nearshore":true},{"id":"adka2","name":"9461380 - Adak Island, AK","lat":51.861,"lon":-176.637,"type":"fixed","nearshore":true},{"id":"agcm4","name":"9014070 - Algonac, MI","lat":42.621,"lon":-82.527,"type":"fixed","nearshore":true},{"id":"agxc1","name":"9410647 - Angels Gate, CA","lat":33.716,"lon":-118.246,"type":"fixed","nearshore":true},{"id":"ajxa2","name":"Juneau AJ Dock, AK","lat":58.287,"lon":-134.398,"type":"fixed","nearshore":true},{"id":"akxa2","name":"Akutan, AK","lat":54.132,"lon":-165.782,"type":"fixed","nearshore":true},{"id":"alia2","name":"9457804 - Alitak, AK","lat":56.898,"lon":-154.247,"type":"fixed","nearshore":true},{"id":"alxn6","name":"8311062 - Alexandria Bay, NY","lat":44.331,"lon":-75.934,"type":"fixed","nearshore":true},{"id":"amaa2","name":"East Amatuli Island Light, AK","lat":58.916,"lon":-151.952,"type":"fixed","nearshore":true},{"id":"amrl1","name":"8764227 - LAWMA, Amerada Pass, LA","lat":29.45,"lon":-91.338,"type":"fixed","nearshore":true},{"id":"anmn6","name":"Field Station, Hudson River Reserve, NY","lat":42.018,"lon":-73.917,"type":"fixed","nearshore":true},{"id":"anpt2","name":"8775241 - Aransas, Aransas Pass, TX","lat":27.837,"lon":-97.039,"type":"fixed","nearshore":true},{"id":"anvc1","name":"9416841 - Arena Cove, CA","lat":38.915,"lon":-123.711,"type":"fixed","nearshore":true},{"id":"apam2","name":"8575512 - Annapolis, MD","lat":38.983,"lon":-76.479,"type":"fixed","nearshore":true},{"id":"apcf1","name":"8728690 - Apalachicola, FL","lat":29.724,"lon":-84.98,"type":"fixed","nearshore":true},{"id":"apma2","name":"Anchorage Port, AK","lat":61.238,"lon":-149.887,"type":"fixed","nearshore":true},{"id":"apnm4","name":"Alpena Harbor Light, Alpena, MI","lat":45.06,"lon":-83.424,"type":"fixed","nearshore":true},{"id":"aprp7","name":"1630000 - Apra Harbor, Guam","lat":13.444,"lon":144.657,"type":"fixed","nearshore":true},{"id":"apxa2","name":"Anchor Point, Kachemak Bay Reserve, AK","lat":59.77,"lon":-151.868,"type":"fixed","nearshore":true},{"id":"apxf1","name":"East Bay, Apalachicola Reserve, FL","lat":29.769,"lon":-84.881,"type":"fixed","nearshore":true},{"id":"asbo1","name":"Ashtabula Lighthouse","lat":41.918,"lon":-80.796,"type":"other","nearshore":false},{"id":"asto3","name":"9439040 - Astoria, OR","lat":46.207,"lon":-123.768,"type":"fixed","nearshore":true},{"id":"atgm1","name":"8413320 - Bar Harbor, ME","lat":44.392,"lon":-68.204,"type":"fixed","nearshore":true},{"id":"atka2","name":"9461710 - Atka, AK","lat":52.232,"lon":-174.173,"type":"fixed","nearshore":true},{"id":"auga2","name":"Augustine Island, AK","lat":59.378,"lon":-153.348,"type":"fixed","nearshore":true},{"id":"babt2","name":"8776604 - Baffin Bay, TX","lat":27.297,"lon":-97.405,"type":"fixed","nearshore":true},{"id":"barn6","name":"Barcelona Harbor, NY","lat":42.345,"lon":-79.595,"type":"fixed","nearshore":true},{"id":"batn6","name":"8518750 - The Battery, NY","lat":40.701,"lon":-74.014,"type":"fixed","nearshore":true},{"id":"baxc1","name":"9410691 - Los Angeles Badger Avenue Bridge","lat":33.766,"lon":-118.24,"type":"fixed","nearshore":true},{"id":"bcfm2","name":"Brewerton Channel Range Front Light (8574831)","lat":39.205,"lon":-76.524,"type":"fixed","nearshore":true},{"id":"bctp1","name":"Beach 2 Tower","lat":42.153,"lon":-80.131,"type":"fixed","nearshore":true},{"id":"bdrn4","name":"8539094 - Burlington, Delaware River, NJ","lat":40.082,"lon":-74.87,"type":"fixed","nearshore":true},{"id":"bdsp1","name":"8546252 - Bridesburg, PA","lat":39.98,"lon":-75.079,"type":"fixed","nearshore":true},{"id":"bdvf1","name":"Broad River, FL","lat":25.478,"lon":-80.989,"type":"fixed","nearshore":true},{"id":"bexa2","name":"Bethel, AK","lat":60.791,"lon":-161.749,"type":"fixed","nearshore":true},{"id":"bftn7","name":"8656483 - Beaufort, NC","lat":34.717,"lon":-76.671,"type":"fixed","nearshore":true},{"id":"bgxn3","name":"Greenland, Great Bay Reserve, NH","lat":43.059,"lon":-70.83,"type":"fixed","nearshore":true},{"id":"bhbm3","name":"8443970 - Boston, MA","lat":42.355,"lon":-71.05,"type":"fixed","nearshore":true},{"id":"bhri3","name":"Burns Harbor, IN","lat":41.646,"lon":-87.147,"type":"fixed","nearshore":true},{"id":"bigm4","name":"Big Bay, MI","lat":46.827,"lon":-87.727,"type":"fixed","nearshore":true},{"id":"bism2","name":"8571421 - Bishops Head, MD","lat":38.22,"lon":-76.039,"type":"fixed","nearshore":true},{"id":"bkbf1","name":"8720357 -  I-295 Buckman Bridge, St Johns River, FL","lat":30.192,"lon":-81.692,"type":"fixed","nearshore":true},{"id":"bktl1","name":"8767961 - Lake Charles Bulk Terminal, LA","lat":30.19,"lon":-93.301,"type":"fixed","nearshore":true},{"id":"bkyf1","name":"Buoy Key, FL","lat":25.119,"lon":-80.834,"type":"fixed","nearshore":true},{"id":"blia2","name":"Bligh Reef Light, AK","lat":60.839,"lon":-146.884,"type":"fixed","nearshore":true},{"id":"blif1","name":"8720233 - Blount Island Command, St Johns River, FL","lat":30.393,"lon":-81.523,"type":"fixed","nearshore":true},{"id":"bltm2","name":"8574680 - Baltimore, MD","lat":39.267,"lon":-76.579,"type":"fixed","nearshore":true},{"id":"bltm3","name":"8447387 - Borden Flats Light at Fall River, MA","lat":41.704,"lon":-71.174,"type":"fixed","nearshore":true},{"id":"bmtw1","name":"9445958 - Bremerton, WA","lat":47.562,"lon":-122.626,"type":"fixed","nearshore":true},{"id":"bnkf1","name":"Butternut Key, FL","lat":25.087,"lon":-80.519,"type":"fixed","nearshore":true},{"id":"bobf1","name":"Bob Allen, FL","lat":25.027,"lon":-80.681,"type":"fixed","nearshore":true},{"id":"brhc3","name":"8467150 - Bridgeport, CT","lat":41.174,"lon":-73.181,"type":"fixed","nearshore":true},{"id":"brnd1","name":"8555889 - Brandywine Shoal Light, DE","lat":38.987,"lon":-75.113,"type":"fixed","nearshore":true},{"id":"bsbm4","name":"Big Sable Point, MI","lat":44.055,"lon":-86.514,"type":"fixed","nearshore":true},{"id":"bskf1","name":"Big Sable Creek, FL","lat":25.266,"lon":-81.162,"type":"fixed","nearshore":true},{"id":"bufn6","name":"9063020 - Buffalo, NY","lat":42.878,"lon":-78.89,"type":"fixed","nearshore":true},{"id":"burl1","name":"Southwest Pass, LA","lat":28.906,"lon":-89.429,"type":"fixed","nearshore":true},{"id":"buzm3","name":"Buzzards Bay, MA","lat":41.397,"lon":-71.033,"type":"fixed","nearshore":true},{"id":"bwsf1","name":"Blackwater Sound, FL","lat":25.178,"lon":-80.438,"type":"fixed","nearshore":true},{"id":"bygl1","name":"8762482 - West Bank 1, Bayou Gauche, LA","lat":29.789,"lon":-90.42,"type":"fixed","nearshore":true},{"id":"bzbm3","name":"8447930 - Woods Hole, MA","lat":41.524,"lon":-70.671,"type":"fixed","nearshore":true},{"id":"bzst2","name":"8779749 - SPI Brazos Santiago, TX","lat":26.067,"lon":-97.155,"type":"fixed","nearshore":true},{"id":"camm2","name":"8571892 - Cambridge, MD","lat":38.574,"lon":-76.069,"type":"fixed","nearshore":true},{"id":"canf1","name":"Cane Patch, FL","lat":25.422,"lon":-80.942,"type":"fixed","nearshore":true},{"id":"capl1","name":"8768094 - Calcasieu Pass, LA","lat":29.768,"lon":-93.343,"type":"fixed","nearshore":true},{"id":"carl1","name":"8761955 - Carrollton, LA","lat":29.933,"lon":-90.135,"type":"fixed","nearshore":true},{"id":"casm1","name":"8418150 - Portland, ME","lat":43.656,"lon":-70.246,"type":"fixed","nearshore":true},{"id":"cavn6","name":"Cape Vincent","lat":44.13,"lon":-76.333,"type":"fixed","nearshore":true},{"id":"cblo1","name":"Conneaut Breakwater Light, OH","lat":41.981,"lon":-80.556,"type":"fixed","nearshore":true},{"id":"cdea2","name":"Cape Decision, AK","lat":56.001,"lon":-134.136,"type":"fixed","nearshore":true},{"id":"cdrf1","name":"Cedar Key, FL","lat":29.136,"lon":-83.029,"type":"fixed","nearshore":true},{"id":"cdxa2","name":"Cape Decision MXAK, AK","lat":56.001,"lon":-134.136,"type":"fixed","nearshore":true},{"id":"cecc1","name":"9419750 - Crescent City, CA","lat":41.746,"lon":-124.184,"type":"fixed","nearshore":true},{"id":"cfwm1","name":"8411060 - Cutler Farris Wharf, ME","lat":44.657,"lon":-67.205,"type":"fixed","nearshore":true},{"id":"chao3","name":"9432780 - Charleston, OR","lat":43.351,"lon":-124.337,"type":"fixed","nearshore":true},{"id":"chav3","name":"9751639 - Charlotte Amalie, VI","lat":18.335,"lon":-64.92,"type":"fixed","nearshore":true},{"id":"chbv2","name":"8638901 - Chesapeake Bay Bridge Tunnel, VA","lat":37.032,"lon":-76.083,"type":"fixed","nearshore":true},{"id":"chcm2","name":"8573927 - Chesapeake City, MD","lat":39.527,"lon":-75.81,"type":"fixed","nearshore":true},{"id":"chii2","name":"Harrison-Dever Crib, Chicago, IL","lat":41.916,"lon":-87.572,"type":"fixed","nearshore":true},{"id":"chsv3","name":"9751364 - Christiansted Harbor, St. Croix, VI","lat":17.748,"lon":-64.699,"type":"fixed","nearshore":true},{"id":"chts1","name":"8665530 - Charleston, Cooper River Entrance, SC","lat":32.781,"lon":-79.924,"type":"fixed","nearshore":true},{"id":"chyv2","name":"8638999 - Cape Henry, VA","lat":36.926,"lon":-76.007,"type":"fixed","nearshore":true},{"id":"chyw1","name":"9449424 - Cherry Point, WA","lat":48.863,"lon":-122.759,"type":"fixed","nearshore":true},{"id":"ckyf1","name":"8727520 - Cedar Key, FL","lat":29.134,"lon":-83.031,"type":"fixed","nearshore":true},{"id":"clbp4","name":"9752235 - Culebra, PR","lat":18.301,"lon":-65.302,"type":"fixed","nearshore":true},{"id":"clkn7","name":"Cape Lookout, NC","lat":34.611,"lon":-76.528,"type":"fixed","nearshore":true},{"id":"clsm4","name":"St. Clair Shores, MI","lat":42.471,"lon":-82.877,"type":"fixed","nearshore":true},{"id":"cman4","name":"8536110 - Cape May, NJ","lat":38.968,"lon":-74.96,"type":"fixed","nearshore":true},{"id":"cmti2","name":"9087044 - Calumet Harbor, IL","lat":41.73,"lon":-87.538,"type":"fixed","nearshore":true},{"id":"cnbf1","name":"Cannon Bay, FL","lat":25.702,"lon":-81.186,"type":"fixed","nearshore":true},{"id":"cndo1","name":"9063063 - Cleveland, OH","lat":41.542,"lon":-81.637,"type":"fixed","nearshore":true},{"id":"cnii2","name":"Northerly Isle, IL","lat":41.856,"lon":-87.609,"type":"fixed","nearshore":true},{"id":"covm2","name":"8577018 - Cove Point LNG Pier, MD","lat":38.402,"lon":-76.385,"type":"fixed","nearshore":true},{"id":"coxa2","name":"Cordova, AK","lat":60.542,"lon":-145.766,"type":"fixed","nearshore":true},{"id":"cpmw1","name":"9449419 - Cherry Point South Dock Met, WA","lat":48.86,"lon":-122.756,"type":"fixed","nearshore":true},{"id":"cpnw1","name":"9449427 - Cherry Point North Dock Met","lat":48.863,"lon":-122.758,"type":"fixed","nearshore":true},{"id":"cpsa2","name":"Cape Seniavin, AK","lat":56.397,"lon":-160.142,"type":"fixed","nearshore":true},{"id":"cptr1","name":"8452944 - Conimicut Light, RI","lat":41.717,"lon":-71.345,"type":"fixed","nearshore":true},{"id":"cpvm2","name":"8575437 - Chesapeake Bay Bridge Visibility, MD","lat":38.995,"lon":-76.388,"type":"fixed","nearshore":true},{"id":"cpxa2","name":"Captains Bay","lat":53.843,"lon":-166.583,"type":"fixed","nearshore":true},{"id":"cpxc1","name":"Cal Poly Pier, CA","lat":35.17,"lon":-120.741,"type":"fixed","nearshore":true},{"id":"crga2","name":"Craig, AK","lat":55.474,"lon":-133.136,"type":"fixed","nearshore":true},{"id":"crva2","name":"9454050 - Cordova, AK","lat":60.558,"lon":-145.752,"type":"fixed","nearshore":true},{"id":"cryv2","name":"8638595 - South Craney Island, VA","lat":36.888,"lon":-76.338,"type":"fixed","nearshore":true},{"id":"csim3","name":"Castle Island (NOS) 8444069","lat":42.341,"lon":-71.012,"type":"fixed","nearshore":true},{"id":"cspa2","name":"Cape Spencer, AK","lat":58.199,"lon":-136.64,"type":"fixed","nearshore":true},{"id":"csxa2","name":"Cape Spencer WX","lat":58.199,"lon":-136.641,"type":"fixed","nearshore":true},{"id":"cwaf1","name":"Clear Water Pass, FL","lat":25.297,"lon":-81.013,"type":"fixed","nearshore":true},{"id":"cwbf1","name":"8726724 - Clearwater Beach, FL","lat":27.978,"lon":-82.832,"type":"fixed","nearshore":true},{"id":"cwci","name":"Caribou Island","lat":47.334,"lon":-85.833,"type":"fixed","nearshore":true},{"id":"cxhn6","name":"Coxsackie, Hudson River (8518979)","lat":42.353,"lon":-73.795,"type":"fixed","nearshore":true},{"id":"cxlm2","name":"Cooperative Oxford Laboratory","lat":38.679,"lon":-76.174,"type":"fixed","nearshore":true},{"id":"cygm4","name":"Cheboygan Marina, MI","lat":45.658,"lon":-84.464,"type":"fixed","nearshore":true},{"id":"dbln6","name":"Dunkirk, NY","lat":42.493,"lon":-79.353,"type":"fixed","nearshore":true},{"id":"dcxa2","name":"Devils Cove","lat":58.351,"lon":-154.127,"type":"fixed","nearshore":true},{"id":"deld1","name":"8551762 - Delaware City, DE","lat":39.582,"lon":-75.589,"type":"fixed","nearshore":true},{"id":"desw1","name":"Destruction Island, WA","lat":47.675,"lon":-124.485,"type":"fixed","nearshore":true},{"id":"dhxa2","name":"Deadhorse, AK","lat":70.222,"lon":-148.419,"type":"fixed","nearshore":true},{"id":"dila1","name":"8735180 - Dauphin Island, AL","lat":30.25,"lon":-88.075,"type":"fixed","nearshore":true},{"id":"dkkf1","name":"Duck Key, FL","lat":25.18,"lon":-80.49,"type":"fixed","nearshore":true},{"id":"dmsf1","name":"8720219 - Dames Point, FL","lat":30.387,"lon":-81.559,"type":"fixed","nearshore":true},{"id":"domv2","name":"8638511 - Dominion Terminal Associates, VA","lat":36.962,"lon":-76.424,"type":"fixed","nearshore":true},{"id":"dpha1","name":"Dauphin Island Sea Lab, AL","lat":30.251,"lon":-88.078,"type":"fixed","nearshore":true},{"id":"dpla2","name":"Dutch Harbor APL, AK","lat":53.884,"lon":-166.531,"type":"fixed","nearshore":true},{"id":"dpxa2","name":"Dutch Harbor Pilot Station, AK","lat":53.889,"lon":-166.542,"type":"fixed","nearshore":true},{"id":"dpxc1","name":"9415141 - Davis Point, San Pablo Bay, CA","lat":38.056,"lon":-122.264,"type":"fixed","nearshore":true},{"id":"drsd1","name":"Saint Jones River, Delaware Reserve, DE","lat":39.089,"lon":-75.437,"type":"fixed","nearshore":true},{"id":"dtlm4","name":"9075099 - De Tour Village, MI","lat":45.993,"lon":-83.898,"type":"fixed","nearshore":true},{"id":"dukn7","name":"8651370 - Duck Pier, NC","lat":36.184,"lon":-75.746,"type":"fixed","nearshore":true},{"id":"dulm5","name":"9099064 - Duluth, MN","lat":46.776,"lon":-92.092,"type":"fixed","nearshore":true},{"id":"ebef1","name":"8726674 - East Bay, FL","lat":27.923,"lon":-82.421,"type":"fixed","nearshore":true},{"id":"efla1","name":"8734536 - E Range Front Light Visibility, AL","lat":30.429,"lon":-88.01,"type":"fixed","nearshore":true},{"id":"einl1","name":"8764314 - North of Eugene Island, LA","lat":29.373,"lon":-91.384,"type":"fixed","nearshore":true},{"id":"elfa2","name":"9452634 - Elfin Cove, AK","lat":58.193,"lon":-136.347,"type":"fixed","nearshore":true},{"id":"elxa2","name":"Cape St. Elias","lat":59.798,"lon":-144.6,"type":"fixed","nearshore":true},{"id":"emat2","name":"8773146 - Matagorda City, TX","lat":28.71,"lon":-95.914,"type":"fixed","nearshore":true},{"id":"eptt2","name":"8771013 - Eagle Point, TX","lat":29.481,"lon":-94.917,"type":"fixed","nearshore":true},{"id":"erxa2","name":"Eldred Rock MXAK, AK","lat":58.971,"lon":-135.221,"type":"fixed","nearshore":true},{"id":"espp4","name":"9752695 - Esperanza, Viequez Island, PR","lat":18.094,"lon":-65.471,"type":"fixed","nearshore":true},{"id":"faio1","name":"9063053 - Fairport, OH","lat":41.764,"lon":-81.281,"type":"fixed","nearshore":true},{"id":"ffia2","name":"Five Fingers, AK","lat":57.27,"lon":-133.631,"type":"fixed","nearshore":true},{"id":"fmrf1","name":"8725520 - Fort Myers, FL","lat":26.647,"lon":-81.871,"type":"fixed","nearshore":true},{"id":"foxr1","name":"8454000 - Providence, RI","lat":41.807,"lon":-71.401,"type":"fixed","nearshore":true},{"id":"fpkg1","name":"8670870 - Fort Pulaski, GA","lat":32.035,"lon":-80.903,"type":"fixed","nearshore":true},{"id":"fpst2","name":"8772471 - Freeport SPIP, TX","lat":28.936,"lon":-95.294,"type":"fixed","nearshore":true},{"id":"fptm4","name":"Fairport, MI","lat":45.619,"lon":-86.66,"type":"fixed","nearshore":true},{"id":"frdf1","name":"8720030 - Fernandina Beach, FL","lat":30.675,"lon":-81.465,"type":"fixed","nearshore":true},{"id":"frdw1","name":"9449880 - Friday Harbor, WA","lat":48.545,"lon":-123.012,"type":"fixed","nearshore":true},{"id":"frma1","name":"8734383 - Fort Morgan, AL","lat":30.234,"lon":-87.994,"type":"fixed","nearshore":true},{"id":"frvm3","name":"8447386 - Fall River, MA","lat":41.704,"lon":-71.164,"type":"fixed","nearshore":true},{"id":"frwl1","name":"8766072 - Freshwater Canal Locks, LA","lat":29.552,"lon":-92.305,"type":"fixed","nearshore":true},{"id":"frxm3","name":"8447412 - Fall River Visibility, MA","lat":41.696,"lon":-71.18,"type":"fixed","nearshore":true},{"id":"fskm2","name":"8574728 - Francis Scott Key Bridge, MD","lat":39.219,"lon":-76.528,"type":"fixed","nearshore":true},{"id":"fsti2","name":"Foster Ave., Chicago, IL","lat":41.976,"lon":-87.648,"type":"fixed","nearshore":true},{"id":"ftgm4","name":"9014098 - Fort Gratiot, MI","lat":43.007,"lon":-82.422,"type":"fixed","nearshore":true},{"id":"ftpc1","name":"9414290 - San Francisco, CA","lat":37.806,"lon":-122.466,"type":"fixed","nearshore":true},{"id":"gbif1","name":"Gunboat Island, FL","lat":25.378,"lon":-81.029,"type":"fixed","nearshore":true},{"id":"gbtf1","name":"Garfield Bight, FL","lat":25.167,"lon":-80.801,"type":"fixed","nearshore":true},{"id":"gbww3","name":"9087077 - Green Bay West, WI","lat":44.538,"lon":-88.003,"type":"fixed","nearshore":true},{"id":"gbxa2","name":"Gambell, AK","lat":63.777,"lon":-171.715,"type":"fixed","nearshore":true},{"id":"gdmm5","name":"9099090 - Grand Marais, MN","lat":47.749,"lon":-90.341,"type":"fixed","nearshore":true},{"id":"gdxm6","name":"Crooked Bayou, Grand Bay Reserve, MS","lat":30.359,"lon":-88.42,"type":"fixed","nearshore":true},{"id":"gexa2","name":"George Island, Alaska","lat":58.213,"lon":-136.381,"type":"fixed","nearshore":true},{"id":"gisl1","name":"8761724 - Grand Isle, LA","lat":29.265,"lon":-89.958,"type":"fixed","nearshore":true},{"id":"gixa2","name":"Guard Island, AK","lat":55.446,"lon":-131.881,"type":"fixed","nearshore":true},{"id":"gnjt2","name":"8771341 - Galveston Bay Entrance (North Jetty), TX","lat":29.357,"lon":-94.725,"type":"fixed","nearshore":true},{"id":"gpxa2","name":"Grave Point, AK","lat":58.062,"lon":-134.051,"type":"fixed","nearshore":true},{"id":"grcm4","name":"GLRC Observatory","lat":47.121,"lon":-88.545,"type":"fixed","nearshore":true},{"id":"grmm4","name":"Grand Marais, MI","lat":46.684,"lon":-85.972,"type":"fixed","nearshore":true},{"id":"grrt2","name":"8771486 - Galveston RR Bridge, TX","lat":29.302,"lon":-94.896,"type":"fixed","nearshore":true},{"id":"gtlm4","name":"Grand Traverse Light, MI","lat":45.211,"lon":-85.55,"type":"fixed","nearshore":true},{"id":"gtot2","name":"8771450 - Galveston Pier 21, TX","lat":29.311,"lon":-94.792,"type":"fixed","nearshore":true},{"id":"gtxf1","name":"Pellicer Creek, Guana Tolomato Matanzas Reserve, FL","lat":29.658,"lon":-81.233,"type":"fixed","nearshore":true},{"id":"guxa2","name":"Gustavus Dock, AK","lat":58.408,"lon":-135.726,"type":"fixed","nearshore":true},{"id":"haxa2","name":"Haines Harbor, AK","lat":59.234,"lon":-135.442,"type":"fixed","nearshore":true},{"id":"hbxc1","name":"Humboldt, CA","lat":40.777,"lon":-124.197,"type":"fixed","nearshore":true},{"id":"hbyc1","name":"9418767 - North Spit, CA","lat":40.767,"lon":-124.217,"type":"fixed","nearshore":true},{"id":"hcef1","name":"Highway Creek, FL","lat":25.254,"lon":-80.444,"type":"fixed","nearshore":true},{"id":"hcgn7","name":"8654467 - USCG Station Hatteras, NC","lat":35.209,"lon":-75.704,"type":"fixed","nearshore":true},{"id":"hhlo1","name":"Huron Harbor Light, OH","lat":41.401,"lon":-82.545,"type":"fixed","nearshore":true},{"id":"hist2","name":"8770808 - High Island, TX","lat":29.595,"lon":-94.39,"type":"fixed","nearshore":true},{"id":"hivt2","name":"8775223 - Harbor Island Visibility, TX","lat":27.844,"lon":-97.07,"type":"fixed","nearshore":true},{"id":"hlnm4","name":"9087031 - Holland, MI","lat":42.773,"lon":-86.213,"type":"fixed","nearshore":true},{"id":"hmsa2","name":"Homer Spit, AK","lat":59.602,"lon":-151.417,"type":"fixed","nearshore":true},{"id":"hrbm4","name":"9075014 - Harbor Beach, MI","lat":43.846,"lon":-82.643,"type":"fixed","nearshore":true},{"id":"href1","name":"Harney River, FL","lat":25.424,"lon":-81.06,"type":"fixed","nearshore":true},{"id":"hrrh1","name":"Lono Circle, He'eia Reserve, HI","lat":21.431,"lon":-157.815,"type":"fixed","nearshore":true},{"id":"icac1","name":"9410840 - Santa Monica Pier","lat":34.008,"lon":-118.5,"type":"fixed","nearshore":true},{"id":"iloh1","name":"1617760 - Hilo, HI","lat":19.73,"lon":-155.056,"type":"fixed","nearshore":true},{"id":"irdt2","name":"8776139 - South Bird Island, TX","lat":27.48,"lon":-97.322,"type":"fixed","nearshore":true},{"id":"itka2","name":"9451600 - Sitka, AK","lat":57.052,"lon":-135.342,"type":"fixed","nearshore":true},{"id":"jbyf1","name":"Joe Bay, FL","lat":25.224,"lon":-80.541,"type":"fixed","nearshore":true},{"id":"jcrn4","name":"Nacote Creek, Jacques Cousteau Reserve, NJ","lat":39.535,"lon":-74.464,"type":"fixed","nearshore":true},{"id":"jkyf1","name":"Johnson Key, FL","lat":25.053,"lon":-80.904,"type":"fixed","nearshore":true},{"id":"jlxa2","name":"Juneau Library, AK","lat":58.298,"lon":-134.405,"type":"fixed","nearshore":true},{"id":"jmla2","name":"Juneau AML Dock","lat":58.286,"lon":-134.39,"type":"fixed","nearshore":true},{"id":"jmpn7","name":"8658163 - Wrightsville Beach, NC","lat":34.213,"lon":-77.786,"type":"fixed","nearshore":true},{"id":"jnea2","name":"9452210 - Juneau, AK","lat":58.298,"lon":-134.411,"type":"fixed","nearshore":true},{"id":"jnga2","name":"Juneau ANG Dock, AK","lat":58.291,"lon":-134.394,"type":"fixed","nearshore":true},{"id":"joxp4","name":"Jobos Bay Weather, Jobos Bay Reserve, PR","lat":17.956,"lon":-66.223,"type":"fixed","nearshore":true},{"id":"jxuf1","name":"8720245 - Jacksonville University, FL","lat":30.354,"lon":-81.612,"type":"fixed","nearshore":true},{"id":"kata1","name":"Katrina Cut, AL","lat":30.258,"lon":-88.213,"type":"fixed","nearshore":true},{"id":"katp","name":"Green Canyon 787 / Atlantis (BP)","lat":27.195,"lon":-90.027,"type":"oilrig","nearshore":false},{"id":"kbmg1","name":"8679598 - Kings Bay MSF Pier, GA","lat":30.777,"lon":-81.487,"type":"fixed","nearshore":true},{"id":"kbqx","name":"Brazos 538 (Transco)","lat":28.314,"lon":-95.62,"type":"oilrig","nearshore":false},{"id":"kcxa2","name":"King Cove","lat":55.057,"lon":-162.326,"type":"fixed","nearshore":true},{"id":"keca2","name":"9450460 - Ketchikan, AK","lat":55.331,"lon":-131.625,"type":"fixed","nearshore":true},{"id":"kexa2","name":"Ketchikan Harbor, AK","lat":55.352,"lon":-131.684,"type":"fixed","nearshore":true},{"id":"kgbk","name":"Garden Banks 783 / Magnolia TLP (W&T Offshore)","lat":27.204,"lon":-92.203,"type":"oilrig","nearshore":false},{"id":"kgca2","name":"9459881 - King Cove, AK","lat":55.062,"lon":-162.327,"type":"fixed","nearshore":true},{"id":"kghb","name":"Garden Banks 172 / Salsa (Shell E & P)","lat":27.84,"lon":-91.988,"type":"oilrig","nearshore":false},{"id":"kgna","name":"Bay of Grand Marais, MN","lat":47.745,"lon":-90.346,"type":"fixed","nearshore":true},{"id":"kgry","name":"Green Canyon 338 / Front Runner (Murphy E&P)","lat":27.625,"lon":-90.441,"type":"oilrig","nearshore":false},{"id":"kgul","name":"Garden Banks 668 / Gunnison Spar (Anadarko)","lat":27.304,"lon":-93.538,"type":"oilrig","nearshore":false},{"id":"kgxa2","name":"Kodiak Gull Island, AK","lat":57.777,"lon":-152.425,"type":"fixed","nearshore":true},{"id":"khhv","name":"Alaminos Canyon 25 / Hoover-Diana (ExxonMobile Corp)","lat":26.939,"lon":-94.689,"type":"oilrig","nearshore":false},{"id":"kikt","name":"Mississippi Canyon 474 / Na Kika FPU (BP)","lat":28.521,"lon":-88.289,"type":"oilrig","nearshore":false},{"id":"klih1","name":"1615680 - Kahului, Kahului Harbor, HI","lat":20.895,"lon":-156.469,"type":"fixed","nearshore":true},{"id":"klmw1","name":"9440357 - TEMCO Kalama Terminal, WA","lat":45.983,"lon":-122.835,"type":"fixed","nearshore":true},{"id":"kmxa2","name":"Kodiak Matson Crane, AK","lat":57.782,"lon":-152.439,"type":"fixed","nearshore":true},{"id":"knxa2","name":"Kenai, AK","lat":60.552,"lon":-151.274,"type":"fixed","nearshore":true},{"id":"koza2","name":"KOTZEBUE MXAK, AK","lat":66.901,"lon":-162.589,"type":"fixed","nearshore":true},{"id":"kp53","name":"Munising Lake Shore, MI","lat":46.417,"lon":-86.65,"type":"fixed","nearshore":true},{"id":"kp58","name":"Port Hope, MI","lat":44.017,"lon":-82.8,"type":"fixed","nearshore":true},{"id":"kp59","name":"Copper Harbor, MI","lat":47.467,"lon":-87.883,"type":"fixed","nearshore":true},{"id":"kptn6","name":"8516945 - Kings Point, NY","lat":40.811,"lon":-73.765,"type":"fixed","nearshore":true},{"id":"kptv2","name":"8632200 - Kiptopeke, VA","lat":37.165,"lon":-75.988,"type":"fixed","nearshore":true},{"id":"kspr","name":"Ship Shoal 178 (Apache Corp)","lat":28.599,"lon":-91.206,"type":"oilrig","nearshore":false},{"id":"ktnf1","name":"Keaton Beach, FL","lat":29.819,"lon":-83.593,"type":"fixed","nearshore":true},{"id":"kwhh1","name":"1617433 - Kawaihae, HI","lat":20.037,"lon":-155.829,"type":"fixed","nearshore":true},{"id":"kwnw3","name":"9087069 - Kewaunee MET, WI","lat":44.465,"lon":-87.496,"type":"fixed","nearshore":true},{"id":"kywf1","name":"8724580 - Key West, FL","lat":24.556,"lon":-81.808,"type":"fixed","nearshore":true},{"id":"lamv3","name":"9751381 - Lameshur Bay, St John, VI","lat":18.318,"lon":-64.724,"type":"fixed","nearshore":true},{"id":"lapw1","name":"9442396 - La Push, WA","lat":47.913,"lon":-124.637,"type":"fixed","nearshore":true},{"id":"lbsf1","name":"Little Blackwater, FL","lat":25.214,"lon":-80.432,"type":"fixed","nearshore":true},{"id":"lcll1","name":"8767816 - Lake Charles, LA","lat":30.224,"lon":-93.222,"type":"fixed","nearshore":true},{"id":"lcna2","name":"Lincoln Island, AK","lat":56.058,"lon":-132.69,"type":"fixed","nearshore":true},{"id":"ldtm4","name":"9087023 - Ludington, MI","lat":43.947,"lon":-86.441,"type":"fixed","nearshore":true},{"id":"lixa2","name":"Little Island, AK","lat":58.54,"lon":-135.047,"type":"fixed","nearshore":true},{"id":"ljac1","name":"9410230 - La Jolla, CA","lat":32.867,"lon":-117.257,"type":"fixed","nearshore":true},{"id":"ljpc1","name":"La Jolla, CA (073)","lat":32.867,"lon":-117.257,"type":"fixed","nearshore":true},{"id":"lkwf1","name":"8722670 - Lake Worth Pier, FL","lat":26.613,"lon":-80.034,"type":"fixed","nearshore":true},{"id":"lmdf1","name":"Little Madeira, FL","lat":25.176,"lon":-80.633,"type":"fixed","nearshore":true},{"id":"lmfs1","name":"Lake Murray SC","lat":34.107,"lon":-81.271,"type":"fixed","nearshore":true},{"id":"lmrf1","name":"Lostmans River, FL","lat":25.556,"lon":-81.169,"type":"fixed","nearshore":true},{"id":"lndc1","name":"9414763 - Oakland Berth 67, CA","lat":37.795,"lon":-122.281,"type":"fixed","nearshore":true},{"id":"lonf1","name":"Long Key, FL","lat":24.844,"lon":-80.864,"type":"fixed","nearshore":true},{"id":"lopw1","name":"9440422 - Longview, WA","lat":46.106,"lon":-122.954,"type":"fixed","nearshore":true},{"id":"lpnm4","name":"9075065 - Alpena, MI","lat":45.063,"lon":-83.429,"type":"fixed","nearshore":true},{"id":"lqat2","name":"La Quinta, TX  MET (8775132)","lat":27.881,"lon":-97.285,"type":"fixed","nearshore":true},{"id":"lrif1","name":"Lane River, FL","lat":25.284,"lon":-80.894,"type":"fixed","nearshore":true},{"id":"lrkf1","name":"Little Rabbit Key, FL","lat":24.982,"lon":-80.826,"type":"fixed","nearshore":true},{"id":"lsnf1","name":"Long Sound, FL","lat":25.235,"lon":-80.457,"type":"fixed","nearshore":true},{"id":"ltbv3","name":"9751401 - Lime Tree Bay, St. Croix, VI","lat":17.695,"lon":-64.754,"type":"fixed","nearshore":true},{"id":"ltjf1","name":"8720228 - Little Jetties, St. Johns River, FL","lat":30.379,"lon":-81.446,"type":"fixed","nearshore":true},{"id":"ltrm4","name":"9076033 - Little Rapids, MI","lat":46.486,"lon":-84.302,"type":"fixed","nearshore":true},{"id":"luit2","name":"8771972 - San Luis Pass, TX","lat":29.076,"lon":-95.122,"type":"fixed","nearshore":true},{"id":"lwsd1","name":"8557380 - Lewes, DE","lat":38.783,"lon":-75.119,"type":"fixed","nearshore":true},{"id":"lwtv2","name":"8635750 - Lewisetta, VA","lat":37.995,"lon":-76.465,"type":"fixed","nearshore":true},{"id":"macm4","name":"9075080 - Mackinaw City, MI","lat":45.777,"lon":-84.721,"type":"fixed","nearshore":true},{"id":"mbet2","name":"8773767 - Matagorda Bay Entrance Channel, TX","lat":28.422,"lon":-96.327,"type":"fixed","nearshore":true},{"id":"mbin7","name":"Masonboro Island, NC (MSNB_S)","lat":34.091,"lon":-77.868,"type":"fixed","nearshore":true},{"id":"mbnn7","name":"Masonboro Island, NC (MSNB_N)","lat":34.171,"lon":-77.824,"type":"fixed","nearshore":true},{"id":"mbpa1","name":"8736163 - Middle Bay Port, Mobile Bay, AL","lat":30.527,"lon":-88.086,"type":"fixed","nearshore":true},{"id":"mbrm4","name":"9014090 - Mouth of the Black River, MI","lat":42.975,"lon":-82.419,"type":"fixed","nearshore":true},{"id":"mbxc1","name":"Morro Bay - BM1 T-Pier, CA","lat":35.371,"lon":-120.859,"type":"fixed","nearshore":true},{"id":"mcga1","name":"8736897 - Coast Guard Sector Mobile, AL","lat":30.649,"lon":-88.058,"type":"fixed","nearshore":true},{"id":"mcgm4","name":"9099018 - Marquette C.G., MI","lat":46.546,"lon":-87.379,"type":"fixed","nearshore":true},{"id":"mcyi3","name":"Michigan City Harbor Entrance Light, Michigan City, IN","lat":41.729,"lon":-86.912,"type":"fixed","nearshore":true},{"id":"mdkf1","name":"Middle Key, FL","lat":25.289,"lon":-80.396,"type":"fixed","nearshore":true},{"id":"mdrm1","name":"Mt. Desert Rock, ME","lat":43.969,"lon":-68.128,"type":"fixed","nearshore":true},{"id":"mdxa2","name":"Middleton Island, AK","lat":59.438,"lon":-146.327,"type":"fixed","nearshore":true},{"id":"meyc1","name":"9413450 - Monterey, CA","lat":36.605,"lon":-121.889,"type":"fixed","nearshore":true},{"id":"mgip4","name":"9759110 - Magueyes Islands, PR","lat":17.97,"lon":-67.046,"type":"fixed","nearshore":true},{"id":"mgpt2","name":"8770613 - Morgans Point, TX","lat":29.682,"lon":-94.985,"type":"fixed","nearshore":true},{"id":"mgzp4","name":"9759394 - Mayaguez, PR","lat":18.218,"lon":-67.159,"type":"fixed","nearshore":true},{"id":"mhbt2","name":"8775283 - Enbridge, Ingleside, TX","lat":27.828,"lon":-97.201,"type":"fixed","nearshore":true},{"id":"mhrn6","name":"8519532 - Mariners Harbor, NY","lat":40.641,"lon":-74.162,"type":"fixed","nearshore":true},{"id":"mism1","name":"Matinicus Rock, ME","lat":43.784,"lon":-68.855,"type":"fixed","nearshore":true},{"id":"misp4","name":"9759938 - Mona Island, PR","lat":18.09,"lon":-67.939,"type":"fixed","nearshore":true},{"id":"mist2","name":"Ship Channel, Mission-Aransas Reserve, TX","lat":27.838,"lon":-97.05,"type":"fixed","nearshore":true},{"id":"mixa2","name":"Midway Island, AK","lat":57.837,"lon":-133.814,"type":"fixed","nearshore":true},{"id":"mkgm4","name":"Muskegon CG Station, Muskegon, MI","lat":43.228,"lon":-86.339,"type":"fixed","nearshore":true},{"id":"mlsc1","name":"Moss Landing, South Harbor, CA","lat":36.802,"lon":-121.791,"type":"fixed","nearshore":true},{"id":"mlww3","name":"Port of Milwaukee","lat":43.005,"lon":-87.884,"type":"fixed","nearshore":true},{"id":"mnbf1","name":"Manatee Bay, FL","lat":25.239,"lon":-80.422,"type":"fixed","nearshore":true},{"id":"mnmm4","name":"9087088 - Menominee, MI","lat":45.096,"lon":-87.59,"type":"fixed","nearshore":true},{"id":"mnpv2","name":"8639348 - Money Point, VA","lat":36.778,"lon":-76.302,"type":"fixed","nearshore":true},{"id":"mokh1","name":"1612480 - Mokuoloe, HI","lat":21.433,"lon":-157.79,"type":"fixed","nearshore":true},{"id":"mrcp1","name":"8540433 - Marcus Hook, PA","lat":39.809,"lon":-75.415,"type":"fixed","nearshore":true},{"id":"mrho1","name":"9063079 - Marblehead, OH","lat":41.544,"lon":-82.731,"type":"fixed","nearshore":true},{"id":"mrka2","name":"Middle Rock Light, AK","lat":61.081,"lon":-146.653,"type":"fixed","nearshore":true},{"id":"mrna2","name":"Marmion Island, AK","lat":58.198,"lon":-134.257,"type":"fixed","nearshore":true},{"id":"mros1","name":"8661070 - Springmaid Pier, SC","lat":33.656,"lon":-78.916,"type":"fixed","nearshore":true},{"id":"mrya2","name":"Mary Island, AK","lat":55.099,"lon":-131.182,"type":"fixed","nearshore":true},{"id":"mtbf1","name":"8726412 - Middle Tampa Bay, FL","lat":27.661,"lon":-82.594,"type":"fixed","nearshore":true},{"id":"mukf1","name":"Murray Key, FL","lat":25.106,"lon":-80.942,"type":"fixed","nearshore":true},{"id":"mvxa2","name":"Mendenhall Valley, AK","lat":58.364,"lon":-134.606,"type":"fixed","nearshore":true},{"id":"mxxa2","name":"MXAK Office, AK","lat":58.301,"lon":-134.425,"type":"fixed","nearshore":true},{"id":"mypf1","name":"8720218 - Mayport (Bar Pilots Dock), FL","lat":30.398,"lon":-81.428,"type":"fixed","nearshore":true},{"id":"mzxc1","name":"9415102 - Martinez-Amorco Pier, CA","lat":38.035,"lon":-122.125,"type":"fixed","nearshore":true},{"id":"nabm4","name":"Naubinway, MI","lat":46.087,"lon":-85.444,"type":"fixed","nearshore":true},{"id":"naxr1","name":"Potters Cove, Narragansett Bay Reserve, RI","lat":41.637,"lon":-71.339,"type":"fixed","nearshore":true},{"id":"nbgm3","name":"8447627 - New Bedford, Barrier Gate, MA","lat":41.624,"lon":-70.906,"type":"fixed","nearshore":true},{"id":"nblp1","name":"8548989 - Newbold, PA","lat":40.137,"lon":-74.752,"type":"fixed","nearshore":true},{"id":"ncdv2","name":"8635027 - Dahlgren, VA","lat":38.32,"lon":-77.037,"type":"fixed","nearshore":true},{"id":"ncht2","name":"8770777 - Manchester, TX","lat":29.726,"lon":-95.266,"type":"fixed","nearshore":true},{"id":"neaw1","name":"9443090 - Neah Bay, WA","lat":48.367,"lon":-124.614,"type":"fixed","nearshore":true},{"id":"nfdf1","name":"8720215 - Navy Fuel Depot, St Johns River, FL","lat":30.4,"lon":-81.627,"type":"fixed","nearshore":true},{"id":"nian6","name":"9063012 - Niagara Intake, NY","lat":43.077,"lon":-79.014,"type":"fixed","nearshore":true},{"id":"niws1","name":"Oyster Landing, North Inlet-Winyah Bay Reserve, SC","lat":33.349,"lon":-79.189,"type":"fixed","nearshore":true},{"id":"njlc1","name":"9418768 - North Jetty Landing, CA","lat":40.769,"lon":-124.239,"type":"fixed","nearshore":true},{"id":"nkla2","name":"Nikolski White Alice","lat":52.972,"lon":-168.855,"type":"fixed","nearshore":true},{"id":"nkta2","name":"9455760 - Nikiski, AK","lat":60.683,"lon":-151.399,"type":"fixed","nearshore":true},{"id":"nkxa2","name":"Naked Island, AK","lat":58.255,"lon":-134.945,"type":"fixed","nearshore":true},{"id":"nlhc3","name":"8461490 - New London, CT","lat":41.372,"lon":-72.096,"type":"fixed","nearshore":true},{"id":"nlxa2","name":"Nelson Lagoon, AK","lat":56.005,"lon":-161.177,"type":"fixed","nearshore":true},{"id":"nmta2","name":"9468756 - Nome, Norton Sound, AK","lat":64.5,"lon":-165.43,"type":"fixed","nearshore":true},{"id":"nmxa2","name":"Nome, AK","lat":64.494,"lon":-165.44,"type":"fixed","nearshore":true},{"id":"npdw3","name":"Northport Pier at Death's Door, WI","lat":45.291,"lon":-86.977,"type":"fixed","nearshore":true},{"id":"npxn6","name":"Norrie Point, Hudson River Reserve, NY","lat":41.831,"lon":-73.942,"type":"fixed","nearshore":true},{"id":"nrep1","name":"Northeast Marina, PA","lat":42.258,"lon":-79.792,"type":"fixed","nearshore":true},{"id":"nrrf1","name":"North River, FL","lat":25.338,"lon":-80.911,"type":"fixed","nearshore":true},{"id":"nsxa2","name":"Nikiski, AK","lat":60.74,"lon":-151.311,"type":"fixed","nearshore":true},{"id":"ntbc1","name":"9411340 - Santa Barbara, CA","lat":34.405,"lon":-119.692,"type":"fixed","nearshore":true},{"id":"ntkm3","name":"8449130 - Nantucket Island, MA","lat":41.285,"lon":-70.096,"type":"fixed","nearshore":true},{"id":"nwcl1","name":"8761927 - New Canal Station, LA","lat":30.027,"lon":-90.113,"type":"fixed","nearshore":true},{"id":"nwhc3","name":"8465705 - New Haven, CT","lat":41.283,"lon":-72.908,"type":"fixed","nearshore":true},{"id":"nwpo3","name":"Newport, OR","lat":44.613,"lon":-124.067,"type":"fixed","nearshore":true},{"id":"nwpr1","name":"8452660 - Newport, RI","lat":41.504,"lon":-71.326,"type":"fixed","nearshore":true},{"id":"nwwh1","name":"1611400 - Nawiliwili, HI","lat":21.954,"lon":-159.353,"type":"fixed","nearshore":true},{"id":"obgn6","name":"8311030 - Ogdensburg, NY","lat":44.702,"lon":-75.494,"type":"fixed","nearshore":true},{"id":"obla1","name":"8737048 - Mobile State Docks, AL","lat":30.705,"lon":-88.04,"type":"fixed","nearshore":true},{"id":"obxc1","name":"9414797 - Oakland Berth 38, CA","lat":37.804,"lon":-122.341,"type":"fixed","nearshore":true},{"id":"ocim2","name":"8570283 - Ocean City Inlet, MD","lat":38.328,"lon":-75.091,"type":"fixed","nearshore":true},{"id":"ohbc1","name":"9410660 - Los Angeles, CA","lat":33.72,"lon":-118.273,"type":"fixed","nearshore":true},{"id":"oksi2","name":"Oak St., Chicago, IL","lat":41.912,"lon":-87.624,"type":"fixed","nearshore":true},{"id":"okxc1","name":"9414776 - Oakland Berth 34, CA","lat":37.811,"lon":-122.333,"type":"fixed","nearshore":true},{"id":"olcn6","name":"Olcott Harbor, NY","lat":43.341,"lon":-78.719,"type":"fixed","nearshore":true},{"id":"omhc1","name":"9414769 - Oakland Middle Harbor Met, CA","lat":37.801,"lon":-122.33,"type":"fixed","nearshore":true},{"id":"oouh1","name":"1612340 - Honolulu, HI","lat":21.303,"lon":-157.865,"type":"fixed","nearshore":true},{"id":"optf1","name":"8726607 - Old Port Tampa, FL","lat":27.858,"lon":-82.553,"type":"fixed","nearshore":true},{"id":"orin7","name":"8652587 - Oregon Inlet Marina, NC","lat":35.796,"lon":-75.548,"type":"fixed","nearshore":true},{"id":"osgn6","name":"9052030 - Oswego, NY","lat":43.464,"lon":-76.511,"type":"fixed","nearshore":true},{"id":"otnm4","name":"Ontonagon, MI","lat":46.87,"lon":-89.33,"type":"fixed","nearshore":true},{"id":"ovia2","name":"9455500 - Seldovia, AK","lat":59.44,"lon":-151.72,"type":"fixed","nearshore":true},{"id":"owmo1","name":"Western Reserve, Old Woman Creek Reserve, OH","lat":41.247,"lon":-82.454,"type":"fixed","nearshore":true},{"id":"owxo1","name":"Old Woman Creek, Old Woman Creek Reserve, OH","lat":41.378,"lon":-82.508,"type":"fixed","nearshore":true},{"id":"pacf1","name":"8729108 - Panama City, FL","lat":30.15,"lon":-85.664,"type":"fixed","nearshore":true},{"id":"pact2","name":"8775792 - Packery Channel, TX","lat":27.634,"lon":-97.237,"type":"fixed","nearshore":true},{"id":"paua2","name":"ST PAUL MXAK, AK","lat":57.124,"lon":-170.271,"type":"fixed","nearshore":true},{"id":"paxa2","name":"Point Arden, AK","lat":58.159,"lon":-134.178,"type":"fixed","nearshore":true},{"id":"pbfw1","name":"Padilla Bay Farm, Padilla Bay Reserve, WA","lat":48.464,"lon":-122.469,"type":"fixed","nearshore":true},{"id":"pbpa2","name":"Point Bishop, AK","lat":58.203,"lon":-134.148,"type":"fixed","nearshore":true},{"id":"pcbf1","name":"8729210 - Panama City Beach, FL","lat":30.213,"lon":-85.88,"type":"fixed","nearshore":true},{"id":"pcgt2","name":"8779748 - South Padre Island CGS, TX","lat":26.072,"lon":-97.167,"type":"fixed","nearshore":true},{"id":"pclf1","name":"8729840 - Pensacola, FL","lat":30.404,"lon":-87.211,"type":"fixed","nearshore":true},{"id":"pcnt2","name":"8773701 - Port O'Connor, Matagorda Bay, TX","lat":28.446,"lon":-96.396,"type":"fixed","nearshore":true},{"id":"pcoc1","name":"9415144 - Port Chicago, CA","lat":38.056,"lon":-122.039,"type":"fixed","nearshore":true},{"id":"pcxa2","name":"Point Craven MXAK, AK","lat":57.463,"lon":-134.867,"type":"fixed","nearshore":true},{"id":"pdvr1","name":"8454123 - Port of Davisville, RI","lat":41.611,"lon":-71.41,"type":"fixed","nearshore":true},{"id":"pegf1","name":"8722956 - Port Everglades, FL","lat":26.086,"lon":-80.116,"type":"fixed","nearshore":true},{"id":"pexa2","name":"Pelican MXAK, AK","lat":57.958,"lon":-136.227,"type":"fixed","nearshore":true},{"id":"pfdc1","name":"9410666 - Los Angeles Pier 400, CA","lat":33.735,"lon":-118.241,"type":"fixed","nearshore":true},{"id":"pfxc1","name":"9410670 - Los Angeles Pier F, CA","lat":33.747,"lon":-118.215,"type":"fixed","nearshore":true},{"id":"pgbp7","name":"1631428 - Pago Bay, Guam","lat":13.428,"lon":144.796,"type":"fixed","nearshore":true},{"id":"pgxa2","name":"Point Gardner","lat":57.016,"lon":-134.618,"type":"fixed","nearshore":true},{"id":"phbp1","name":"8545240 - Philadelphia, PA","lat":39.933,"lon":-75.142,"type":"fixed","nearshore":true},{"id":"pila2","name":"Pilot Rock, AK","lat":59.742,"lon":-149.47,"type":"fixed","nearshore":true},{"id":"pill1","name":"8760721 - Pilottown, LA","lat":29.179,"lon":-89.259,"type":"fixed","nearshore":true},{"id":"pilm4","name":"Passage Island, MI","lat":48.223,"lon":-88.366,"type":"fixed","nearshore":true},{"id":"pkyf1","name":"Peterson Key, FL","lat":24.918,"lon":-80.747,"type":"fixed","nearshore":true},{"id":"plxa2","name":"9451054 - Port Alexander, AK","lat":56.247,"lon":-134.647,"type":"fixed","nearshore":true},{"id":"pmaf1","name":"8726384 - Port Manatee, FL","lat":27.638,"lon":-82.562,"type":"fixed","nearshore":true},{"id":"pmnt2","name":"8778490 - Port Mansfield, TX","lat":26.559,"lon":-97.424,"type":"fixed","nearshore":true},{"id":"pngw3","name":"Port Wing, WI","lat":46.792,"lon":-91.386,"type":"fixed","nearshore":true},{"id":"pnlm4","name":"9087096 - Port Inland, MI","lat":45.968,"lon":-85.869,"type":"fixed","nearshore":true},{"id":"pnlm6","name":"8741533 - Pascagoula NOAA Lab, MS","lat":30.368,"lon":-88.563,"type":"fixed","nearshore":true},{"id":"poro3","name":"9431647 - Port Orford, OR","lat":42.739,"lon":-124.498,"type":"fixed","nearshore":true},{"id":"port2","name":"8770475 - Port Arthur, TX","lat":29.867,"lon":-93.931,"type":"fixed","nearshore":true},{"id":"pota2","name":"Potato Point, AK","lat":61.056,"lon":-146.697,"type":"fixed","nearshore":true},{"id":"ppta1","name":"Perdido Pass, AL","lat":30.279,"lon":-87.556,"type":"fixed","nearshore":true},{"id":"pptm2","name":"8578240 - Piney Point, MD","lat":38.134,"lon":-76.533,"type":"fixed","nearshore":true},{"id":"ppxa2","name":"Point Pigot","lat":60.801,"lon":-148.357,"type":"fixed","nearshore":true},{"id":"ppxc1","name":"9414847 - Point Potrero, Richmond, CA","lat":37.906,"lon":-122.365,"type":"fixed","nearshore":true},{"id":"prda2","name":"9497645 - Prudhoe Bay, AK","lat":70.4,"lon":-148.527,"type":"fixed","nearshore":true},{"id":"prhh1","name":"1612401 - Pearl Harbor, HI","lat":21.367,"lon":-157.964,"type":"fixed","nearshore":true},{"id":"prim4","name":"Presque Isle Light, MI","lat":45.357,"lon":-83.492,"type":"fixed","nearshore":true},{"id":"prjc1","name":"9410665 - Los Angeles Pier J, CA","lat":33.733,"lon":-118.186,"type":"fixed","nearshore":true},{"id":"prta2","name":"Point Retreat, AK","lat":58.411,"lon":-134.955,"type":"fixed","nearshore":true},{"id":"prur1","name":"8452314 - Sandy Point, Prudence Island, RI","lat":41.605,"lon":-71.304,"type":"fixed","nearshore":true},{"id":"pryc1","name":"9415020 - Point Reyes, CA","lat":37.996,"lon":-122.977,"type":"fixed","nearshore":true},{"id":"psbc1","name":"9415115 - Pittsburg (Suisun Bay), CA","lat":38.04,"lon":-121.887,"type":"fixed","nearshore":true},{"id":"psbm1","name":"8410140 - Eastport, ME","lat":44.905,"lon":-66.983,"type":"fixed","nearshore":true},{"id":"pslc1","name":"9412110 - Port San Luis, CA","lat":35.169,"lon":-120.754,"type":"fixed","nearshore":true},{"id":"pstl1","name":"8760922 - Pilot's Station East, SW Pass, LA","lat":28.932,"lon":-89.407,"type":"fixed","nearshore":true},{"id":"pstn6","name":"9063028 - Sturgeon Point, NY","lat":42.691,"lon":-79.048,"type":"fixed","nearshore":true},{"id":"psxc1","name":"9410692 - Los Angeles Pier S","lat":33.768,"lon":-118.226,"type":"fixed","nearshore":true},{"id":"ptat2","name":"Port Aransas, TX","lat":27.826,"lon":-97.051,"type":"fixed","nearshore":true},{"id":"ptaw1","name":"9444090 - Port Angeles, WA","lat":48.125,"lon":-123.441,"type":"fixed","nearshore":true},{"id":"ptbm6","name":"8741003 - Petit Bois Island, Port of Pascagoula, MS","lat":30.213,"lon":-88.505,"type":"fixed","nearshore":true},{"id":"ptcr1","name":"8452951 - Potter Cove, Prudence Island, RI","lat":41.638,"lon":-71.34,"type":"fixed","nearshore":true},{"id":"ptfl1","name":"8762075 - Port Fourchon, LA","lat":29.114,"lon":-90.199,"type":"fixed","nearshore":true},{"id":"ptgc1","name":"Point Arguello, CA","lat":34.577,"lon":-120.648,"type":"fixed","nearshore":true},{"id":"ptim4","name":"9099004 - Point Iroquois, MI","lat":46.485,"lon":-84.631,"type":"fixed","nearshore":true},{"id":"ptit2","name":"8779770 - Port Isabel, TX","lat":26.061,"lon":-97.215,"type":"fixed","nearshore":true},{"id":"ptla2","name":"Portland Island, AK","lat":58.346,"lon":-134.752,"type":"fixed","nearshore":true},{"id":"ptoa1","name":"8737005 - Pinto Island, AL","lat":30.671,"lon":-88.031,"type":"fixed","nearshore":true},{"id":"ptww1","name":"9444900 - Port Townsend, WA","lat":48.111,"lon":-122.76,"type":"fixed","nearshore":true},{"id":"pvdr1","name":"8453662 - Providence Visibility, RI","lat":41.786,"lon":-71.383,"type":"fixed","nearshore":true},{"id":"pwaw3","name":"Port Washington, WI","lat":43.388,"lon":-87.867,"type":"fixed","nearshore":true},{"id":"pxac1","name":"9410690 - Los Angeles Berth 161, CA","lat":33.764,"lon":-118.265,"type":"fixed","nearshore":true},{"id":"pxoc1","name":"9414311 - San Francisco Pier 1, CA","lat":37.798,"lon":-122.393,"type":"fixed","nearshore":true},{"id":"pxsc1","name":"9414296 - Pier 17, San Francisco Bay, CA","lat":37.803,"lon":-122.397,"type":"fixed","nearshore":true},{"id":"rckm4","name":"9076024 - Rock Cut, MI","lat":46.264,"lon":-84.191,"type":"fixed","nearshore":true},{"id":"rcmc1","name":"9414863 - Richmond, CA","lat":37.923,"lon":-122.41,"type":"fixed","nearshore":true},{"id":"rcpt2","name":"8774770 - Rockport, TX","lat":28.024,"lon":-97.048,"type":"fixed","nearshore":true},{"id":"rcrn6","name":"9052058 - Rochester, NY","lat":43.269,"lon":-77.626,"type":"fixed","nearshore":true},{"id":"rdda2","name":"9491094 - Red Dog Dock, AK","lat":67.575,"lon":-164.067,"type":"fixed","nearshore":true},{"id":"rixa2","name":"Rocky Island, AK","lat":58.177,"lon":-135.052,"type":"fixed","nearshore":true},{"id":"rkxf1","name":"Upper Henderson Creek, Rookery Bay Reserve, FL","lat":26.05,"lon":-81.701,"type":"fixed","nearshore":true},{"id":"rlit2","name":"8779280 - Realitos Peninsula, TX","lat":26.262,"lon":-97.285,"type":"fixed","nearshore":true},{"id":"rlot2","name":"8770971 - Rollover Pass, TX","lat":29.515,"lon":-94.513,"type":"fixed","nearshore":true},{"id":"roam4","name":"Rock of Ages, MI","lat":47.867,"lon":-89.315,"type":"fixed","nearshore":true},{"id":"robn4","name":"8530973 - Robbins Reef, NJ","lat":40.657,"lon":-74.065,"type":"fixed","nearshore":true},{"id":"rplv2","name":"8632837 - Rappahannock Light, VA","lat":37.538,"lon":-76.014,"type":"fixed","nearshore":true},{"id":"rprn6","name":"Rochester Coast Guard, NY","lat":43.263,"lon":-77.598,"type":"fixed","nearshore":true},{"id":"rsjt2","name":"8777812 - Rincon del San Jose, TX","lat":26.801,"lon":-97.471,"type":"fixed","nearshore":true},{"id":"rtat2","name":"8775237 - Port Aransas, TX","lat":27.84,"lon":-97.072,"type":"fixed","nearshore":true},{"id":"rtyc1","name":"9414523 - Redwood City, CA","lat":37.507,"lon":-122.212,"type":"fixed","nearshore":true},{"id":"sanf1","name":"Sand Key, FL","lat":24.456,"lon":-81.877,"type":"fixed","nearshore":true},{"id":"sapf1","name":"8726520 - St. Petersburg, Tampa Bay, FL","lat":27.761,"lon":-82.627,"type":"fixed","nearshore":true},{"id":"sauf1","name":"St. Augustine, FL","lat":29.857,"lon":-81.264,"type":"fixed","nearshore":true},{"id":"saxg1","name":"Marsh Island, Sapelo Island Reserve, GA","lat":31.418,"lon":-81.296,"type":"fixed","nearshore":true},{"id":"sbeo3","name":"9435380 - South Beach, OR","lat":44.625,"lon":-124.045,"type":"fixed","nearshore":true},{"id":"sbio1","name":"South Bass Island, OH","lat":41.629,"lon":-82.841,"type":"fixed","nearshore":true},{"id":"sblm4","name":"Saginaw Bay Light #1, MI","lat":43.81,"lon":-83.72,"type":"fixed","nearshore":true},{"id":"scxa2","name":"Scull Island, AK","lat":58.205,"lon":-134.646,"type":"fixed","nearshore":true},{"id":"sdbc1","name":"9410170 - San Diego, CA","lat":32.714,"lon":-117.174,"type":"fixed","nearshore":true},{"id":"sdhn4","name":"8531680 - Sandy Hook, NJ","lat":40.467,"lon":-74.009,"type":"fixed","nearshore":true},{"id":"seim1","name":"8419870 - Seavey Island, ME","lat":43.08,"lon":-70.742,"type":"fixed","nearshore":true},{"id":"sfxc1","name":"Rush Ranch, San Francisco Bay Reserve, CA","lat":38.2,"lon":-122.026,"type":"fixed","nearshore":true},{"id":"sgnw3","name":"Sheboygan, WI","lat":43.749,"lon":-87.693,"type":"fixed","nearshore":true},{"id":"sgxa2","name":"ST GEORGE MXAK","lat":56.599,"lon":-169.542,"type":"fixed","nearshore":true},{"id":"shbl1","name":"8761305 - Shell Beach, LA","lat":29.868,"lon":-89.673,"type":"fixed","nearshore":true},{"id":"shxa2","name":"Sitka Harbor, AK","lat":57.055,"lon":-135.349,"type":"fixed","nearshore":true},{"id":"sisw1","name":"Smith Island, WA","lat":48.321,"lon":-122.831,"type":"fixed","nearshore":true},{"id":"sjnp4","name":"9755371 - San Juan, La Puntilla, San Juan Bay, PR","lat":18.459,"lon":-66.116,"type":"fixed","nearshore":true},{"id":"sjsn4","name":"8537121 - Ship John Shoal, NJ","lat":39.305,"lon":-75.377,"type":"fixed","nearshore":true},{"id":"skcf1","name":"8726671 - Sparkman Channel Entrance, FL","lat":27.921,"lon":-82.445,"type":"fixed","nearshore":true},{"id":"skda2","name":"Skagway Ore Dock","lat":59.449,"lon":-135.331,"type":"fixed","nearshore":true},{"id":"skta2","name":"9452400 - Skagway, AK","lat":59.45,"lon":-135.327,"type":"fixed","nearshore":true},{"id":"skxa2","name":"Skagway MXAK, AK","lat":59.448,"lon":-135.326,"type":"fixed","nearshore":true},{"id":"slim2","name":"8577330 - Solomons Island, MD","lat":38.321,"lon":-76.452,"type":"fixed","nearshore":true},{"id":"slvm5","name":"Silver Bay, MN","lat":47.278,"lon":-91.27,"type":"fixed","nearshore":true},{"id":"slxa2","name":"Salmon Landing, AK","lat":55.34,"lon":-131.644,"type":"fixed","nearshore":true},{"id":"smkf1","name":"Sombrero Key, FL","lat":24.628,"lon":-81.109,"type":"fixed","nearshore":true},{"id":"snda2","name":"9459450 - Sand Point, AK","lat":55.336,"lon":-160.502,"type":"fixed","nearshore":true},{"id":"snto3","name":"Tom's Creek, South Slough Reserve, OR","lat":43.279,"lon":-124.318,"type":"fixed","nearshore":true},{"id":"sptm4","name":"Sturgeon Point Light, MI","lat":44.713,"lon":-83.273,"type":"fixed","nearshore":true},{"id":"spxa2","name":"Ship Island, AK","lat":55.599,"lon":-132.203,"type":"fixed","nearshore":true},{"id":"sref1","name":"Shark River, FL","lat":25.352,"lon":-81.1,"type":"fixed","nearshore":true},{"id":"srst2","name":"Sabine Pass, TX","lat":29.683,"lon":-94.033,"type":"fixed","nearshore":true},{"id":"srxa2","name":"Statter Harbor MXAK, AK","lat":58.383,"lon":-134.652,"type":"fixed","nearshore":true},{"id":"ssbn7","name":"Sunset Beach Nearshore Waves (SUN2WAVE)","lat":33.838,"lon":-78.484,"type":"buoy","nearshore":false},{"id":"stdm4","name":"Stannard Rock, MI","lat":47.184,"lon":-87.225,"type":"fixed","nearshore":true},{"id":"stxa2","name":"Sitka AML, AK","lat":57.116,"lon":-135.391,"type":"fixed","nearshore":true},{"id":"svnm4","name":"South Haven Light, South Haven, MI","lat":42.401,"lon":-86.288,"type":"fixed","nearshore":true},{"id":"swpm4","name":"9076070 - S.W. Pier, MI","lat":46.501,"lon":-84.372,"type":"fixed","nearshore":true},{"id":"swpv2","name":"8638610 - Sewells Point, VA","lat":36.943,"lon":-76.329,"type":"fixed","nearshore":true},{"id":"swxa2","name":"Seward Harbor, AK","lat":60.116,"lon":-149.434,"type":"fixed","nearshore":true},{"id":"sxhw3","name":"Saxon Harbor, WI","lat":46.563,"lon":-90.437,"type":"fixed","nearshore":true},{"id":"sxxa2","name":"Saxman Landing, AK","lat":55.315,"lon":-131.596,"type":"fixed","nearshore":true},{"id":"taqt2","name":"8775296 - USS Lexington, TX","lat":27.815,"lon":-97.389,"type":"fixed","nearshore":true},{"id":"tawm4","name":"Tawas Point, MI","lat":44.254,"lon":-83.449,"type":"fixed","nearshore":true},{"id":"tbyf1","name":"Terrapin Bay, FL","lat":25.155,"lon":-80.722,"type":"fixed","nearshore":true},{"id":"tcbm2","name":"8573364 - Tolchester Beach, MD","lat":39.213,"lon":-76.244,"type":"fixed","nearshore":true},{"id":"tcmw1","name":"9446482 - Tacoma Met, WA","lat":47.276,"lon":-122.418,"type":"fixed","nearshore":true},{"id":"tcnw1","name":"9446484 - Tacoma, WA","lat":47.267,"lon":-122.413,"type":"fixed","nearshore":true},{"id":"tcvf1","name":"Trout Cove, FL","lat":25.213,"lon":-80.533,"type":"fixed","nearshore":true},{"id":"tdpc1","name":"Trinidad Pier Trinidad, CA","lat":41.055,"lon":-124.147,"type":"fixed","nearshore":true},{"id":"tesl1","name":"8764044 - Tesoro Marine Terminal, Berwick, Atchafalaya River, LA","lat":29.668,"lon":-91.237,"type":"fixed","nearshore":true},{"id":"tgxa2","name":"Togiak, Alaska","lat":59.055,"lon":-160.334,"type":"fixed","nearshore":true},{"id":"thrf1","name":"Thursday Point, FL","lat":25.203,"lon":-80.372,"type":"fixed","nearshore":true},{"id":"thro1","name":"9063085 - Toledo, OH","lat":41.694,"lon":-83.473,"type":"fixed","nearshore":true},{"id":"tibc1","name":"Tiburon Pier, San Francisco Bay, CA","lat":37.892,"lon":-122.447,"type":"fixed","nearshore":true},{"id":"tixc1","name":"Tidal Linkage, Tijuana River Reserve, CA","lat":32.575,"lon":-117.127,"type":"fixed","nearshore":true},{"id":"tkea2","name":"Tenakee Springs, AK","lat":57.779,"lon":-135.219,"type":"fixed","nearshore":true},{"id":"tkpn6","name":"Turkey Point Hudson River NERRS, NY (NOS 8518962)","lat":42.014,"lon":-73.939,"type":"fixed","nearshore":true},{"id":"tlvt2","name":"8775285 - Tule Lake Visibility, TX","lat":27.819,"lon":-97.454,"type":"fixed","nearshore":true},{"id":"tokw1","name":"9440910 - Toke Point, WA","lat":46.707,"lon":-123.967,"type":"fixed","nearshore":true},{"id":"tpaf1","name":"8726694 - TPA Cruise Terminal 2, Tampa, FL","lat":27.933,"lon":-82.433,"type":"fixed","nearshore":true},{"id":"tpef1","name":"Tarpon Bay East, FL","lat":25.41,"lon":-80.964,"type":"fixed","nearshore":true},{"id":"tplm2","name":"Thomas Point, MD","lat":38.899,"lon":-76.436,"type":"fixed","nearshore":true},{"id":"tpxa2","name":"Tree Point, AK","lat":54.802,"lon":-130.934,"type":"fixed","nearshore":true},{"id":"trdf1","name":"8721604 - Trident Pier, FL","lat":28.416,"lon":-80.593,"type":"fixed","nearshore":true},{"id":"trrf1","name":"Taylor River, FL","lat":25.217,"lon":-80.65,"type":"fixed","nearshore":true},{"id":"trtp1","name":"TREC Tower","lat":42.11,"lon":-80.154,"type":"fixed","nearshore":true},{"id":"twco1","name":"Toledo Crib, OH","lat":41.699,"lon":-83.259,"type":"fixed","nearshore":true},{"id":"txpt2","name":"8770822 - Texas Point, Sabine Pass, TX","lat":29.689,"lon":-93.842,"type":"fixed","nearshore":true},{"id":"txvt2","name":"8775302 - TX State Aquarium Visibility, TX","lat":27.813,"lon":-97.389,"type":"fixed","nearshore":true},{"id":"ulra2","name":"9468333 - Unalakleet, Unalakleet River, AK","lat":63.872,"lon":-160.784,"type":"fixed","nearshore":true},{"id":"unla2","name":"9462620 - Unalaska, AK","lat":53.88,"lon":-166.537,"type":"fixed","nearshore":true},{"id":"upbc1","name":"9415118 - Union Pacific Rail Road Bridge, Martinez, CA","lat":38.038,"lon":-122.121,"type":"fixed","nearshore":true},{"id":"uqxa2","name":"Utqiagvik, AK","lat":71.315,"lon":-156.722,"type":"fixed","nearshore":true},{"id":"utvt2","name":"8775236 - UTMSI Visibility, TX","lat":27.838,"lon":-97.052,"type":"fixed","nearshore":true},{"id":"vakf1","name":"8723214 - Virginia Key, FL","lat":25.731,"lon":-80.162,"type":"fixed","nearshore":true},{"id":"vcaf1","name":"8723970 - Vaca Key, FL","lat":24.711,"lon":-81.107,"type":"fixed","nearshore":true},{"id":"vcat2","name":"8773259 - Port Lavaca, TX","lat":28.64,"lon":-96.609,"type":"fixed","nearshore":true},{"id":"vcva2","name":"9464212 - Village Cove, St. Paul Island, AK","lat":57.125,"lon":-170.285,"type":"fixed","nearshore":true},{"id":"vdxa2","name":"Valdez, AK","lat":61.127,"lon":-146.344,"type":"fixed","nearshore":true},{"id":"vdza2","name":"9454240 - Valdez, AK","lat":61.125,"lon":-146.361,"type":"fixed","nearshore":true},{"id":"venf1","name":"Venice, FL","lat":27.072,"lon":-82.453,"type":"fixed","nearshore":true},{"id":"vrmo1","name":"Vermilion River at Lake Erie, OH","lat":41.428,"lon":-82.364,"type":"other","nearshore":false},{"id":"vtbt2","name":"8775222 - Viola Turning Basin, TX","lat":27.841,"lon":-97.52,"type":"fixed","nearshore":true},{"id":"wahv2","name":"8631044 - Wachapreague, VA","lat":37.608,"lon":-75.686,"type":"fixed","nearshore":true},{"id":"wasd2","name":"8594900 - Washington, DC","lat":38.873,"lon":-77.021,"type":"fixed","nearshore":true},{"id":"wats1","name":"Lake Wateree, SC","lat":34.335,"lon":-80.702,"type":"fixed","nearshore":true},{"id":"waxm3","name":"Carriage House, Waquoit Bay Reserve, MA","lat":41.582,"lon":-70.525,"type":"fixed","nearshore":true},{"id":"wbxa2","name":"Womens Bay Cargo Pier","lat":57.729,"lon":-152.516,"type":"fixed","nearshore":true},{"id":"wcrp1","name":"Walnut Creek Marina, PA","lat":42.077,"lon":-80.24,"type":"other","nearshore":false},{"id":"wcxa2","name":"Ward Cove, AK","lat":55.402,"lon":-131.729,"type":"fixed","nearshore":true},{"id":"wdsv2","name":"8638614 - Willoughby Deguassing Station, VA","lat":36.977,"lon":-76.315,"type":"fixed","nearshore":true},{"id":"wexm1","name":"Laudholm Farm, Wells Reserve, ME","lat":43.337,"lon":-70.549,"type":"fixed","nearshore":true},{"id":"wfxa2","name":"Womens Bay Fuel Pier","lat":57.726,"lon":-152.519,"type":"fixed","nearshore":true},{"id":"wgxa2","name":"Wrangell Harbor","lat":56.467,"lon":-132.382,"type":"fixed","nearshore":true},{"id":"whri2","name":"Waukegan Harbor, IL","lat":42.361,"lon":-87.813,"type":"fixed","nearshore":true},{"id":"wixa2","name":"Whittier AMHS, AK","lat":60.777,"lon":-148.682,"type":"fixed","nearshore":true},{"id":"wkxa1","name":"Safe Harbor Met Station, Weeks Bay Reserve, AL","lat":30.421,"lon":-87.828,"type":"fixed","nearshore":true},{"id":"wlon7","name":"8658120 - Wilmington, NC","lat":34.228,"lon":-77.954,"type":"fixed","nearshore":true},{"id":"wlxa2","name":"Wales, AK","lat":65.616,"lon":-168.094,"type":"fixed","nearshore":true},{"id":"wnem4","name":"9076027 - West Neebish Island, MI","lat":46.285,"lon":-84.21,"type":"fixed","nearshore":true},{"id":"wplf1","name":"Watson Place, FL","lat":25.71,"lon":-81.249,"type":"fixed","nearshore":true},{"id":"wpow1","name":"West Point, WA","lat":47.662,"lon":-122.435,"type":"fixed","nearshore":true},{"id":"wptw1","name":"9441102 - Westport, WA","lat":46.904,"lon":-124.105,"type":"fixed","nearshore":true},{"id":"wrbf1","name":"Whipray Basin, FL","lat":25.072,"lon":-80.735,"type":"fixed","nearshore":true},{"id":"wrxa2","name":"Wainwright, AK","lat":70.636,"lon":-160.034,"type":"fixed","nearshore":true},{"id":"wwef1","name":"Whitewater Bay-East, FL","lat":25.232,"lon":-80.938,"type":"fixed","nearshore":true},{"id":"wycm6","name":"8747437 - Bay Waveland Yacht Club, MS","lat":30.326,"lon":-89.326,"type":"fixed","nearshore":true},{"id":"yata2","name":"9453220 - Yakutat, Yakutat Bay, AK","lat":59.548,"lon":-139.733,"type":"fixed","nearshore":true},{"id":"yktv2","name":"8637689 - Yorktown USCG Training Center, VA","lat":37.227,"lon":-76.479,"type":"fixed","nearshore":true},{"id":"yrsv2","name":"Taskinas Creek, Chesapeake Bay Reserve, VA","lat":37.414,"lon":-76.712,"type":"fixed","nearshore":true}]